<kml><Document><Placemark><name>Sensor:81495, Onstreet:1st St, Fromstreet: Virgil Av, Affected:3 </name><Point><coordinates>-118.286583,34.073402,0</coordinates></Point></Placemark><Placemark><name>Sensor:11451, Onstreet:null, Fromstreet: null, Affected:3 </name><Point><coordinates>-118.330528,33.994995,0</coordinates></Point></Placemark><Placemark><name>Sensor:81512, Onstreet:Silver Lake Bl, Temple St, Fromstreet: Virgil Av, Affected:3 </name><Point><coordinates>-118.283729,34.076449,0</coordinates></Point></Placemark><Placemark><name>Sensor:41164, Onstreet:Century Park East, Fromstreet: Santa Monica Bl, Affected:6 </name><Point><coordinates>-118.415823,34.062908,0</coordinates></Point></Placemark><Placemark><name>Sensor:60130, Onstreet:Hayvenhurst Av, Fromstreet: Ventura Fwy W/B Off-ramp, Affected:3 </name><Point><coordinates>-118.49217,34.165904,0</coordinates></Point></Placemark><Placemark><name>Sensor:40441, Onstreet:Sepulveda Westway, Fromstreet: Westchester Pkwy, Affected:2 </name><Point><coordinates>-118.397947,33.954375,0</coordinates></Point></Placemark><Placemark><name>Sensor:10341, Onstreet:Harbor Fwy S/B Ramps, Fromstreet: Martin Luther King Jr Bl, Affected:4 </name><Point><coordinates>-118.281283,34.011088,0</coordinates></Point></Placemark><Placemark><name>Sensor:20280, Onstreet:3rd St, Fromstreet: Flower St, Affected:2 </name><Point><coordinates>-118.253238,34.05439,0</coordinates></Point></Placemark><Placemark><name>Sensor:10526, Onstreet:Broadway, Fromstreet: Vernon Av, Affected:2 </name><Point><coordinates>-118.278171,34.003793,0</coordinates></Point></Placemark><Placemark><name>Sensor:80152, Onstreet:Glendale Bl, Fromstreet: Silver Lake Bl, Affected:2 </name><Point><coordinates>-118.259053,34.100846,0</coordinates></Point></Placemark><Placemark><name>Sensor:120163, Onstreet:Pacific Av, Fromstreet: Windward Av, Affected:1 </name><Point><coordinates>-118.472127,33.987591,0</coordinates></Point></Placemark><Placemark><name>Sensor:50287, Onstreet:Cadillac Av, Hillsboro Av, Fromstreet: Robertson Bl, Affected:1 </name><Point><coordinates>-118.387434,34.041107,0</coordinates></Point></Placemark><Placemark><name>Sensor:141005, Onstreet:Avenue 46, Fromstreet: York Bl, Affected:1 </name><Point><coordinates>-118.215881,34.123205,0</coordinates></Point></Placemark><Placemark><name>Sensor:60703, Onstreet:Laurel Canyon Bl, Fromstreet: Magnolia Bl, Affected:2 </name><Point><coordinates>-118.396297,34.164853,0</coordinates></Point></Placemark><Placemark><name>Sensor:60202, Onstreet:San Diego Fwy S/B Ramps, Sherman Oaks Av, Fromstreet: Ventura Bl, Affected:2 </name><Point><coordinates>-118.468802,34.154274,0</coordinates></Point></Placemark><Placemark><name>Sensor:91559, Onstreet:Sherman Wy, Fromstreet: Topanga Canyon Bl, Affected:3 </name><Point><coordinates>-118.605703,34.201116,0</coordinates></Point></Placemark><Placemark><name>Sensor:41015, Onstreet:Avenue Of The Stars, Fromstreet: Pico Bl, Affected:3 </name><Point><coordinates>-118.408505,34.051192,0</coordinates></Point></Placemark><Placemark><name>Sensor:140208, Onstreet:Mission Rd, North Main St, Fromstreet: Valley Bl (south I/S), Affected:3 </name><Point><coordinates>-118.207061,34.065506,0</coordinates></Point></Placemark><Placemark><name>Sensor:140531, Onstreet:Downey Rd, Grande Vista Av, Fromstreet: Washington Bl, Affected:3 </name><Point><coordinates>-118.207404,34.0139,0</coordinates></Point></Placemark><Placemark><name>Sensor:31307, Onstreet:Carlos Av, Fromstreet: Gower St, Affected:2 </name><Point><coordinates>-118.322268,34.102777,0</coordinates></Point></Placemark><Placemark><name>Sensor:10857, Onstreet:Hill St, Fromstreet: Washington Bl, Affected:2 </name><Point><coordinates>-118.266541,34.031924,0</coordinates></Point></Placemark><Placemark><name>Sensor:61056, Onstreet:Laurel Canyon Bl, Laurel Terrace Dr, Fromstreet: Sunshine Ter, Affected:2 </name><Point><coordinates>-118.392713,34.137259,0</coordinates></Point></Placemark><Placemark><name>Sensor:120185, Onstreet:Brooks Av, Fromstreet: Pacific Av, Affected:2 </name><Point><coordinates>-118.475217,33.991475,0</coordinates></Point></Placemark><Placemark><name>Sensor:140298, Onstreet:Marengo St, Fromstreet: Soto St, Affected:4 </name><Point><coordinates>-118.202683,34.054605,0</coordinates></Point></Placemark><Placemark><name>Sensor:10350, Onstreet:Grand Av, Hill St, Fromstreet: Martin Luther King Jr Bl, Affected:4 </name><Point><coordinates>-118.280167,34.011088,0</coordinates></Point></Placemark><Placemark><name>Sensor:91694, Onstreet:Mason Av, Fromstreet: Sherman Wy, Affected:3 </name><Point><coordinates>-118.579503,34.201073,0</coordinates></Point></Placemark><Placemark><name>Sensor:80044, Onstreet:Commonwealth Av, Fromstreet: Los Feliz Bl, Affected:2 </name><Point><coordinates>-118.285039,34.112304,0</coordinates></Point></Placemark><Placemark><name>Sensor:130024, Onstreet:8th St, Fromstreet: Union Av, Affected:2 </name><Point><coordinates>-118.271927,34.052244,0</coordinates></Point></Placemark><Placemark><name>Sensor:80127, Onstreet:Newell St, Fromstreet: Riverside Dr, Affected:2 </name><Point><coordinates>-118.248024,34.098378,0</coordinates></Point></Placemark><Placemark><name>Sensor:21218, Onstreet:General Thaddeus Kosciuszko Wy, Fromstreet: Grand Av (lower), Affected:2 </name><Point><coordinates>-118.250126,34.053789,0</coordinates></Point></Placemark><Placemark><name>Sensor:81518, Onstreet:Silver Lake Bl, Temple St, Fromstreet: Virgil Av, Affected:4 </name><Point><coordinates>-118.283729,34.076449,0</coordinates></Point></Placemark><Placemark><name>Sensor:41006, Onstreet:Motor Av, Fromstreet: Pico Bl, Affected:4 </name><Point><coordinates>-118.410544,34.04999,0</coordinates></Point></Placemark><Placemark><name>Sensor:41432, Onstreet:Bundy Dr, Fromstreet: Wilshire Bl, Affected:2 </name><Point><coordinates>-118.467321,34.044046,0</coordinates></Point></Placemark><Placemark><name>Sensor:90474, Onstreet:Corbin Av, Fromstreet: Victory Bl, Affected:2 </name><Point><coordinates>-118.562036,34.186589,0</coordinates></Point></Placemark><Placemark><name>Sensor:20018, Onstreet:Hill St, Fromstreet: Pico Bl, Affected:2 </name><Point><coordinates>-118.261949,34.037632,0</coordinates></Point></Placemark><Placemark><name>Sensor:140043, Onstreet:Eastern Av, El Sereno Av, Fromstreet: Huntington Dr, Affected:1 </name><Point><coordinates>-118.178179,34.086212,0</coordinates></Point></Placemark><Placemark><name>Sensor:130315, Onstreet:12th Dr, 12th St, Fromstreet: Figueroa St, Affected:2 </name><Point><coordinates>-118.266348,34.042159,0</coordinates></Point></Placemark><Placemark><name>Sensor:130322, Onstreet:12th St, Fromstreet: Hope St, Affected:2 </name><Point><coordinates>-118.264117,34.040786,0</coordinates></Point></Placemark><Placemark><name>Sensor:60424, Onstreet:Kester Av, Fromstreet: Victory Bl, Affected:2 </name><Point><coordinates>-118.457216,34.18659,0</coordinates></Point></Placemark><Placemark><name>Sensor:41678, Onstreet:Sunset Bl, Fromstreet: Veteran Av, Affected:1 </name><Point><coordinates>-118.455305,34.07589,0</coordinates></Point></Placemark><Placemark><name>Sensor:61891, Onstreet:Burbank Bl, Fromstreet: Whitsett Av, Affected:2 </name><Point><coordinates>-118.405009,34.172149,0</coordinates></Point></Placemark><Placemark><name>Sensor:70293, Onstreet:Beverly Bl, Fromstreet: Rossmore Av, Affected:2 </name><Point><coordinates>-118.327031,34.075976,0</coordinates></Point></Placemark><Placemark><name>Sensor:41481, Onstreet:Santa Monica Bl, Fromstreet: Sawtelle Bl, Affected:1 </name><Point><coordinates>-118.448309,34.046428,0</coordinates></Point></Placemark><Placemark><name>Sensor:11440, Onstreet:null, Fromstreet: null, Affected:3 </name><Point><coordinates>-118.330528,34.000016,0</coordinates></Point></Placemark><Placemark><name>Sensor:80034, Onstreet:HILLHURST AV, Fromstreet: LOS FELIZ BL, Affected:4 </name><Point><coordinates>-118.287206,34.111897,0</coordinates></Point></Placemark><Placemark><name>Sensor:40468, Onstreet:Mcconnell Av, Fromstreet: Westchester Pkwy, Affected:5 </name><Point><coordinates>-118.408505,33.953903,0</coordinates></Point></Placemark><Placemark><name>Sensor:41117, Onstreet:Santa Monica Bl, Fromstreet: Veteran Av, Affected:1 </name><Point><coordinates>-118.439984,34.048746,0</coordinates></Point></Placemark><Placemark><name>Sensor:51169, Onstreet:null, Fromstreet: null, Affected:2 </name><Point><coordinates>-118.412818,34.007139,0</coordinates></Point></Placemark><Placemark><name>Sensor:91706, Onstreet:Kittridge St, Fromstreet: Topanga Canyon Bl, Affected:4 </name><Point><coordinates>-118.605724,34.191159,0</coordinates></Point></Placemark><Placemark><name>Sensor:141101, Onstreet:Avenue 54, Fromstreet: Figueroa St, Affected:2 </name><Point><coordinates>-118.197105,34.107434,0</coordinates></Point></Placemark><Placemark><name>Sensor:91750, Onstreet:Owensmouth Av, Fromstreet: Vanowen St, Affected:2 </name><Point><coordinates>-118.601261,34.193863,0</coordinates></Point></Placemark><Placemark><name>Sensor:11508, Onstreet:null, Fromstreet: null, Affected:2 </name><Point><coordinates>-118.330656,33.970834,0</coordinates></Point></Placemark><Placemark><name>Sensor:140657, Onstreet:1st St, Fromstreet: Fresno St, Affected:2 </name><Point><coordinates>-118.198628,34.038705,0</coordinates></Point></Placemark><Placemark><name>Sensor:120337, Onstreet:Culver Bl, Fromstreet: Inglewood Bl, Affected:2 </name><Point><coordinates>-118.411745,33.990166,0</coordinates></Point></Placemark><Placemark><name>Sensor:61620, Onstreet:Louise Av, Fromstreet: Victory Bl, Affected:3 </name><Point><coordinates>-118.509765,34.186504,0</coordinates></Point></Placemark><Placemark><name>Sensor:60559, Onstreet:Burbank Bl, Fromstreet: San Diego Fwy S/B Ramps, Affected:4 </name><Point><coordinates>-118.467923,34.17202,0</coordinates></Point></Placemark><Placemark><name>Sensor:60313, Onstreet:Cahuenga Bl West, Lankershim Bl, Fromstreet: Ventura Bl, Affected:2 </name><Point><coordinates>-118.363037,34.137173,0</coordinates></Point></Placemark><Placemark><name>Sensor:21100, Onstreet:Cesar E Chavez Av, Fromstreet: Grand Av, Affected:2 </name><Point><coordinates>-118.243668,34.060634,0</coordinates></Point></Placemark><Placemark><name>Sensor:70261, Onstreet:Melrose Av, Rossmore Av, Fromstreet: Vine St, Affected:2 </name><Point><coordinates>-118.326387,34.083401,0</coordinates></Point></Placemark><Placemark><name>Sensor:31270, Onstreet:Highland Av, Fromstreet: Johnny Grant Wy, Affected:3 </name><Point><coordinates>-118.338554,34.103184,0</coordinates></Point></Placemark><Placemark><name>Sensor:70034, Onstreet:Highland Av, Fromstreet: Melrose Av, Affected:2 </name><Point><coordinates>-118.338446,34.083422,0</coordinates></Point></Placemark><Placemark><name>Sensor:70061, Onstreet:Beverly Bl, Fromstreet: La Cienega Bl, Affected:3 </name><Point><coordinates>-118.376362,34.075997,0</coordinates></Point></Placemark><Placemark><name>Sensor:11141, Onstreet:Crenshaw Bl, Fromstreet: Jefferson Bl, Affected:3 </name><Point><coordinates>-118.334905,34.025594,0</coordinates></Point></Placemark><Placemark><name>Sensor:40322, Onstreet:La Tijera Bl, Fromstreet: Lincoln Bl, Affected:3 </name><Point><coordinates>-118.4158,33.956285,0</coordinates></Point></Placemark><Placemark><name>Sensor:50059, Onstreet:Arlington Av, Olympic Bl, Fromstreet: Wilton Pl, Affected:2 </name><Point><coordinates>-118.314778,34.052523,0</coordinates></Point></Placemark><Placemark><name>Sensor:50433, Onstreet:La Cienega Bl, Fromstreet: Venice Bl, Affected:3 </name><Point><coordinates>-118.377692,34.035185,0</coordinates></Point></Placemark><Placemark><name>Sensor:21418, Onstreet:2nd St, Fromstreet: Hill St, Affected:2 </name><Point><coordinates>-118.247573,34.052953,0</coordinates></Point></Placemark><Placemark><name>Sensor:51269, Onstreet:Clemson St, Fromstreet: La Cienega Bl, Affected:4 </name><Point><coordinates>-118.371984,34.024199,0</coordinates></Point></Placemark><Placemark><name>Sensor:60290, Onstreet:Tujunga Av, Fromstreet: Ventura Bl, Affected:2 </name><Point><coordinates>-118.378766,34.139941,0</coordinates></Point></Placemark><Placemark><name>Sensor:61208, Onstreet:Hazeltine Av, Fromstreet: Moorpark St, Affected:2 </name><Point><coordinates>-118.439749,34.150434,0</coordinates></Point></Placemark><Placemark><name>Sensor:61753, Onstreet:Erwin St, Fromstreet: Whitsett Av, Affected:2 </name><Point><coordinates>-118.405009,34.183028,0</coordinates></Point></Placemark><Placemark><name>Sensor:140004, Onstreet:Avenue 60, Fromstreet: Monterey Rd, Affected:1 </name><Point><coordinates>-118.184166,34.105481,0</coordinates></Point></Placemark><Placemark><name>Sensor:140539, Onstreet:4th St, Fromstreet: Mott St, Affected:2 </name><Point><coordinates>-118.207833,34.038834,0</coordinates></Point></Placemark><Placemark><name>Sensor:70463, Onstreet:8th St, Fromstreet: Western Av, Affected:2 </name><Point><coordinates>-118.308878,34.057995,0</coordinates></Point></Placemark><Placemark><name>Sensor:50157, Onstreet:Fairfax Av, Fromstreet: Pico Bl, Affected:1 </name><Point><coordinates>-118.366448,34.051514,0</coordinates></Point></Placemark><Placemark><name>Sensor:51209, Onstreet:Santa Monica Fwy W/B Ramps, Fromstreet: Western Av, Affected:3 </name><Point><coordinates>-118.308684,34.037696,0</coordinates></Point></Placemark><Placemark><name>Sensor:140403, Onstreet:Boyle Av, Fromstreet: Whittier Bl, Affected:2 </name><Point><coordinates>-118.218819,34.035701,0</coordinates></Point></Placemark><Placemark><name>Sensor:50609, Onstreet:Crenshaw Bl, Fromstreet: Washington Bl, Affected:2 </name><Point><coordinates>-118.330829,34.039927,0</coordinates></Point></Placemark><Placemark><name>Sensor:21213, Onstreet:General Thaddeus Kosciuszko Wy, Fromstreet: Grand Av (lower), Affected:2 </name><Point><coordinates>-118.250126,34.053789,0</coordinates></Point></Placemark><Placemark><name>Sensor:50199, Onstreet:Pico Bl, Fromstreet: Western Av, Affected:2 </name><Point><coordinates>-118.308877,34.04718,0</coordinates></Point></Placemark><Placemark><name>Sensor:140296, Onstreet:Marengo St, Fromstreet: Soto St, Affected:2 </name><Point><coordinates>-118.202683,34.054605,0</coordinates></Point></Placemark><Placemark><name>Sensor:50386, Onstreet:Sepulveda Bl, Fromstreet: Venice Bl, Affected:4 </name><Point><coordinates>-118.41711,34.012826,0</coordinates></Point></Placemark><Placemark><name>Sensor:80518, Onstreet:8th St, Fromstreet: Hoover St, Affected:2 </name><Point><coordinates>-118.283965,34.05763,0</coordinates></Point></Placemark><Placemark><name>Sensor:110075, Onstreet:Avalon Bl, Fromstreet: Pacific Coast Hwy, Affected:2 </name><Point><coordinates>-118.263106,33.79119,0</coordinates></Point></Placemark><Placemark><name>Sensor:41490, Onstreet:BUNDY DR, Fromstreet: OLYMPIC BL, Affected:2 </name><Point><coordinates>-118.453588,34.032416,0</coordinates></Point></Placemark><Placemark><name>Sensor:120350, Onstreet:Braddock Dr, Fromstreet: Inglewood Bl, Affected:2 </name><Point><coordinates>-118.414363,33.992698,0</coordinates></Point></Placemark><Placemark><name>Sensor:50311, Onstreet:Overland Av, Fromstreet: Palms Bl, Affected:1 </name><Point><coordinates>-118.411445,34.024713,0</coordinates></Point></Placemark><Placemark><name>Sensor:10192, Onstreet:Jefferson Bl, Fromstreet: Vermont Av, Affected:2 </name><Point><coordinates>-118.291303,34.025487,0</coordinates></Point></Placemark><Placemark><name>Sensor:61161, Onstreet:Campo De Cahuenga Wy, Fromstreet: Hollywood Fwy N/B Ramps, Affected:4 </name><Point><coordinates>-118.366578,34.139834,0</coordinates></Point></Placemark><Placemark><name>Sensor:120678, Onstreet:Lincoln Bl, Marina Pointe Dr, Fromstreet: Maxella Av, Affected:3 </name><Point><coordinates>-118.443309,33.985682,0</coordinates></Point></Placemark><Placemark><name>Sensor:120457, Onstreet:Jefferson Bl, Fromstreet: San Diego Fwy S/B Ramps, Affected:3 </name><Point><coordinates>-118.399235,33.987463,0</coordinates></Point></Placemark><Placemark><name>Sensor:10937, Onstreet:Hooper Av, Fromstreet: Washington Bl, Affected:3 </name><Point><coordinates>-118.245813,34.021882,0</coordinates></Point></Placemark><Placemark><name>Sensor:50845, Onstreet:Soto St, Fromstreet: Washington Bl, Affected:2 </name><Point><coordinates>-118.219914,34.017247,0</coordinates></Point></Placemark><Placemark><name>Sensor:70006, Onstreet:Crescent Heights Bl, Fromstreet: Melrose Av, Affected:1 </name><Point><coordinates>-118.365655,34.083701,0</coordinates></Point></Placemark><Placemark><name>Sensor:40936, Onstreet:Hilgard Av, Fromstreet: Westholme Av, Affected:2 </name><Point><coordinates>-118.438718,34.069646,0</coordinates></Point></Placemark><Placemark><name>Sensor:50489, Onstreet:San Vicente Bl, Venice Bl, Fromstreet: Vineyard Av, Affected:2 </name><Point><coordinates>-118.336772,34.047073,0</coordinates></Point></Placemark><Placemark><name>Sensor:141211, Onstreet:Figueroa St, Riverside Dr, Fromstreet: San Fernando Rd, Affected:2 </name><Point><coordinates>-118.225579,34.081363,0</coordinates></Point></Placemark><Placemark><name>Sensor:10786, Onstreet:null, Fromstreet: null, Affected:2 </name><Point><coordinates>-118.282398,33.938218,0</coordinates></Point></Placemark><Placemark><name>Sensor:60252, Onstreet:Ventura Bl, Fromstreet: Woodman Av, Affected:2 </name><Point><coordinates>-118.431015,34.14803,0</coordinates></Point></Placemark><Placemark><name>Sensor:80735, Onstreet:Temple St, Fromstreet: Union Av, Affected:2 </name><Point><coordinates>-118.263001,34.068681,0</coordinates></Point></Placemark><Placemark><name>Sensor:91566, Onstreet:De Soto Av, Fromstreet: Vanowen St, Affected:2 </name><Point><coordinates>-118.588193,34.193863,0</coordinates></Point></Placemark><Placemark><name>Sensor:130012, Onstreet:8th St, Fromstreet: Westlake Av, Affected:2 </name><Point><coordinates>-118.276455,34.054261,0</coordinates></Point></Placemark><Placemark><name>Sensor:60828, Onstreet:RIVERSIDE DR, Fromstreet: WHITSETT AV, Affected:2 </name><Point><coordinates>-118.405009,34.157622,0</coordinates></Point></Placemark><Placemark><name>Sensor:10069, Onstreet:27th St, Fromstreet: Vermont Av, Affected:2 </name><Point><coordinates>-118.291325,34.030465,0</coordinates></Point></Placemark><Placemark><name>Sensor:40023, Onstreet:CENTINELA AV, Fromstreet: LA CIENEGA BL, Affected:4 </name><Point><coordinates>-118.370053,33.977249,0</coordinates></Point></Placemark><Placemark><name>Sensor:141022, Onstreet:Avenue 52, Fromstreet: York Bl, Affected:2 </name><Point><coordinates>-118.202491,34.12063,0</coordinates></Point></Placemark><Placemark><name>Sensor:90037, Onstreet:Topanga Canyon Bl, Fromstreet: Ventura Bl, Affected:3 </name><Point><coordinates>-118.605638,34.168543,0</coordinates></Point></Placemark><Placemark><name>Sensor:11342, Onstreet:null, Fromstreet: null, Affected:2 </name><Point><coordinates>-118.28684,33.960062,0</coordinates></Point></Placemark><Placemark><name>Sensor:60164, Onstreet:Louise Av, Fromstreet: Ventura Bl, Affected:3 </name><Point><coordinates>-118.509636,34.16084,0</coordinates></Point></Placemark><Placemark><name>Sensor:60595, Onstreet:Burbank Bl, Fromstreet: Van Nuys Bl, Affected:3 </name><Point><coordinates>-118.448482,34.172106,0</coordinates></Point></Placemark><Placemark><name>Sensor:40125, Onstreet:Howard Hughes Pkwy, Fromstreet: San Diego Fwy S/B Ramps, Affected:4 </name><Point><coordinates>-118.389171,33.974889,0</coordinates></Point></Placemark><Placemark><name>Sensor:11249, Onstreet:Buckingham Rd, Fromstreet: Martin Luther King Jr Bl, Affected:1 </name><Point><coordinates>-118.341514,34.014865,0</coordinates></Point></Placemark><Placemark><name>Sensor:51017, Onstreet:National Bl, Fromstreet: Westwood Bl, Affected:2 </name><Point><coordinates>-118.420779,34.030507,0</coordinates></Point></Placemark><Placemark><name>Sensor:130559, Onstreet:Oak St, Fromstreet: Washington Bl, Affected:2 </name><Point><coordinates>-118.277399,34.036902,0</coordinates></Point></Placemark><Placemark><name>Sensor:70233, Onstreet:La Brea Av, Fromstreet: Wilshire Bl, Affected:3 </name><Point><coordinates>-118.343832,34.062179,0</coordinates></Point></Placemark><Placemark><name>Sensor:70155, Onstreet:3rd St, Fromstreet: Highland Av, Affected:2 </name><Point><coordinates>-118.338446,34.068852,0</coordinates></Point></Placemark><Placemark><name>Sensor:50247, Onstreet:National Bl, Fromstreet: Sawtelle Bl, Affected:2 </name><Point><coordinates>-118.431336,34.026194,0</coordinates></Point></Placemark><Placemark><name>Sensor:50256, Onstreet:National Bl, Fromstreet: San Diego Fwy S/B On-ramp, Affected:2 </name><Point><coordinates>-118.430435,34.026559,0</coordinates></Point></Placemark><Placemark><name>Sensor:10261, Onstreet:Exposition Bl, Fromstreet: Vermont Av, Affected:3 </name><Point><coordinates>-118.291303,34.018255,0</coordinates></Point></Placemark><Placemark><name>Sensor:31319, Onstreet:CHEROKEE AV, Fromstreet: HOLLYWOOD BL, Affected:2 </name><Point><coordinates>-118.334713,34.101532,0</coordinates></Point></Placemark><Placemark><name>Sensor:21441, Onstreet:11th St, Fromstreet: Hill St, Affected:3 </name><Point><coordinates>-118.259611,34.040121,0</coordinates></Point></Placemark><Placemark><name>Sensor:50767, Onstreet:Santa Ana Fwy N/B Ramps, Fromstreet: Soto St, Affected:2 </name><Point><coordinates>-118.217489,34.031152,0</coordinates></Point></Placemark><Placemark><name>Sensor:120035, Onstreet:Admiralty Wy, Fromstreet: Marina Del Rey Bicycle Path, Affected:2 </name><Point><coordinates>-118.442751,33.983171,0</coordinates></Point></Placemark><Placemark><name>Sensor:91641, Onstreet:Royer Av, Fromstreet: Victory Bl, Affected:3 </name><Point><coordinates>-118.627547,34.18646,0</coordinates></Point></Placemark><Placemark><name>Sensor:11326, Onstreet:null, Fromstreet: null, Affected:4 </name><Point><coordinates>-118.291432,33.959976,0</coordinates></Point></Placemark><Placemark><name>Sensor:120086, Onstreet:Alla Rd, Fromstreet: Marina Expy W/B, Affected:2 </name><Point><coordinates>-118.428976,33.982248,0</coordinates></Point></Placemark><Placemark><name>Sensor:11143, Onstreet:7th Av, Fromstreet: Jefferson Bl, Affected:2 </name><Point><coordinates>-118.324563,34.025637,0</coordinates></Point></Placemark><Placemark><name>Sensor:130581, Onstreet:Hope St, Fromstreet: Washington Bl (South Side), Affected:2 </name><Point><coordinates>-118.269524,34.033211,0</coordinates></Point></Placemark><Placemark><name>Sensor:70461, Onstreet:8th St, Fromstreet: Western Av, Affected:2 </name><Point><coordinates>-118.308878,34.057995,0</coordinates></Point></Placemark><Placemark><name>Sensor:120735, Onstreet:Marina Expy W/B, Fromstreet: Mindanao Wy, Affected:2 </name><Point><coordinates>-118.437666,33.98375,0</coordinates></Point></Placemark><Placemark><name>Sensor:81291, Onstreet:ALVARADO ST, BERKELEY AV, Fromstreet: GLENDALE BL, Affected:1 </name><Point><coordinates>-118.25974,34.08353,0</coordinates></Point></Placemark><Placemark><name>Sensor:50683, Onstreet:Adams Bl, Fromstreet: La Brea Av, Affected:2 </name><Point><coordinates>-118.350784,34.032417,0</coordinates></Point></Placemark><Placemark><name>Sensor:130626, Onstreet:23rd St, Fromstreet: Union Av, Affected:1 </name><Point><coordinates>-118.283171,34.034885,0</coordinates></Point></Placemark><Placemark><name>Sensor:10795, Onstreet:null, Fromstreet: null, Affected:3 </name><Point><coordinates>-118.282333,33.930987,0</coordinates></Point></Placemark><Placemark><name>Sensor:21548, Onstreet:Central Av, Fromstreet: Olympic Bl, Affected:2 </name><Point><coordinates>-118.244011,34.032031,0</coordinates></Point></Placemark><Placemark><name>Sensor:120241, Onstreet:Beethoven St, Fromstreet: Venice Bl, Affected:1 </name><Point><coordinates>-118.441056,33.999694,0</coordinates></Point></Placemark><Placemark><name>Sensor:61872, Onstreet:Burbank Bl, Fromstreet: Tyrone Av, Affected:2 </name><Point><coordinates>-118.444105,34.172084,0</coordinates></Point></Placemark><Placemark><name>Sensor:140571, Onstreet:Cesar E Chavez Av, Fromstreet: Warren St, Affected:2 </name><Point><coordinates>-118.2203,34.052373,0</coordinates></Point></Placemark><Placemark><name>Sensor:130160, Onstreet:Olympic Bl, Fromstreet: Union Av, Affected:2 </name><Point><coordinates>-118.273966,34.04909,0</coordinates></Point></Placemark><Placemark><name>Sensor:51154, Onstreet:null, Fromstreet: null, Affected:1 </name><Point><coordinates>-118.415608,34.01098,0</coordinates></Point></Placemark><Placemark><name>Sensor:50777, Onstreet:8th St, Fromstreet: Soto St, Affected:3 </name><Point><coordinates>-118.21927,34.027997,0</coordinates></Point></Placemark><Placemark><name>Sensor:81301, Onstreet:Parkman Av, Silver Lake Bl, Fromstreet: Sunset Bl, Affected:2 </name><Point><coordinates>-118.273151,34.082864,0</coordinates></Point></Placemark><Placemark><name>Sensor:20164, Onstreet:1st St, Fromstreet: Hope St, Affected:3 </name><Point><coordinates>-118.249676,34.056279,0</coordinates></Point></Placemark><Placemark><name>Sensor:110070, Onstreet:Avalon Bl, Fromstreet: Pacific Coast Hwy, Affected:2 </name><Point><coordinates>-118.263106,33.79119,0</coordinates></Point></Placemark><Placemark><name>Sensor:50671, Onstreet:Adams Bl, Fromstreet: Hauser Bl, Affected:1 </name><Point><coordinates>-118.362436,34.03246,0</coordinates></Point></Placemark><Placemark><name>Sensor:10107, Onstreet:NORMANDIE AV, Fromstreet: SANTA MONICA FWY E/B RAMPS, Affected:1 </name><Point><coordinates>-118.300058,34.036537,0</coordinates></Point></Placemark><Placemark><name>Sensor:10930, Onstreet:Hooper Av, Fromstreet: Washington Bl, Affected:1 </name><Point><coordinates>-118.245813,34.021882,0</coordinates></Point></Placemark><Placemark><name>Sensor:40477, Onstreet:Mcconnell Av, Fromstreet: Westchester Pkwy, Affected:3 </name><Point><coordinates>-118.408505,33.953903,0</coordinates></Point></Placemark><Placemark><name>Sensor:61897, Onstreet:Burbank Bl, Fromstreet: Whitsett Av, Affected:2 </name><Point><coordinates>-118.405009,34.172149,0</coordinates></Point></Placemark><Placemark><name>Sensor:60329, Onstreet:Campo De Cahuenga Wy, Lankershim Bl, Fromstreet: Universal Hollywood Dr, Affected:4 </name><Point><coordinates>-118.3619,34.139083,0</coordinates></Point></Placemark><Placemark><name>Sensor:80232, Onstreet:Sanborn Av, Santa Monica Bl, Fromstreet: Sunset Bl, Affected:2 </name><Point><coordinates>-118.280167,34.092413,0</coordinates></Point></Placemark><Placemark><name>Sensor:90054, Onstreet:Canoga Av, Fromstreet: Ventura Bl, Affected:1 </name><Point><coordinates>-118.597227,34.167878,0</coordinates></Point></Placemark><Placemark><name>Sensor:30878, Onstreet:FRANKLIN AV, Fromstreet: WESTERN AV, Affected:1 </name><Point><coordinates>-118.309157,34.105395,0</coordinates></Point></Placemark><Placemark><name>Sensor:11303, Onstreet:null, Fromstreet: null, Affected:1 </name><Point><coordinates>-118.317524,33.959912,0</coordinates></Point></Placemark><Placemark><name>Sensor:60361, Onstreet:Cahuenga Bl West, Hollywood Fwy S/B Ramps, Fromstreet: Regal Pl, Affected:1 </name><Point><coordinates>-118.360913,34.135006,0</coordinates></Point></Placemark><Placemark><name>Sensor:120209, Onstreet:Rose Av, Fromstreet: Walgrove Av, Affected:1 </name><Point><coordinates>-118.454596,34.008298,0</coordinates></Point></Placemark><Placemark><name>Sensor:21055, Onstreet:Alpine St, Fromstreet: North Broadway, Affected:1 </name><Point><coordinates>-118.238175,34.062244,0</coordinates></Point></Placemark><Placemark><name>Sensor:140504, Onstreet:Aliso St, Mission Rd, Fromstreet: Santa Ana Fwy Ramps, Affected:2 </name><Point><coordinates>-118.226673,34.052137,0</coordinates></Point></Placemark><Placemark><name>Sensor:60026, Onstreet:Balboa Bl, Fromstreet: Victory Bl, Affected:4 </name><Point><coordinates>-118.500925,34.186568,0</coordinates></Point></Placemark><Placemark><name>Sensor:41201, Onstreet:Sepulveda Bl, Fromstreet: Wilshire Bl, Affected:3 </name><Point><coordinates>-118.451271,34.056127,0</coordinates></Point></Placemark><Placemark><name>Sensor:50796, Onstreet:Olympic Bl, Fromstreet: Santa Fe Av, Affected:2 </name><Point><coordinates>-118.229849,34.025573,0</coordinates></Point></Placemark><Placemark><name>Sensor:31043, Onstreet:Cahuenga Bl, Fromstreet: Selma Av, Affected:2 </name><Point><coordinates>-118.329349,34.099751,0</coordinates></Point></Placemark><Placemark><name>Sensor:90112, Onstreet:Ventura Bl, Fromstreet: Winnetka Av, Affected:3 </name><Point><coordinates>-118.57077,34.170989,0</coordinates></Point></Placemark><Placemark><name>Sensor:60082, Onstreet:Ventura Fwy E/B Ramps, Fromstreet: White Oak Av, Affected:1 </name><Point><coordinates>-118.51837,34.170732,0</coordinates></Point></Placemark><Placemark><name>Sensor:80022, Onstreet:Los Feliz Bl, Fromstreet: Vermont Av, Affected:4 </name><Point><coordinates>-118.291626,34.11106,0</coordinates></Point></Placemark><Placemark><name>Sensor:40484, Onstreet:Loyola Bl, Northside Pkwy, Fromstreet: Westchester Pkwy, Affected:3 </name><Point><coordinates>-118.417066,33.953109,0</coordinates></Point></Placemark><Placemark><name>Sensor:61799, Onstreet:Bellaire Av, Fromstreet: Oxnard St, Affected:2 </name><Point><coordinates>-118.409215,34.17938,0</coordinates></Point></Placemark><Placemark><name>Sensor:70404, Onstreet:Crenshaw Bl, Fromstreet: Wilshire Bl, Affected:4 </name><Point><coordinates>-118.318941,34.061685,0</coordinates></Point></Placemark><Placemark><name>Sensor:41407, Onstreet:Montana Av, Fromstreet: San Vicente Bl, Affected:2 </name><Point><coordinates>-118.469596,34.052737,0</coordinates></Point></Placemark><Placemark><name>Sensor:90073, Onstreet:De Soto Av, Serrania Av, Fromstreet: Ventura Bl, Affected:2 </name><Point><coordinates>-118.588021,34.16644,0</coordinates></Point></Placemark><Placemark><name>Sensor:60987, Onstreet:Dickens St, Saugus Av, Fromstreet: Sepulveda Bl, Affected:3 </name><Point><coordinates>-118.465991,34.152579,0</coordinates></Point></Placemark><Placemark><name>Sensor:90523, Onstreet:Long Valley Rd, Valley Circle Bl, Fromstreet: Ventura Fwy W/B Off-ramp, Affected:4 </name><Point><coordinates>-118.637567,34.160153,0</coordinates></Point></Placemark><Placemark><name>Sensor:60741, Onstreet:Sepulveda Bl, Fromstreet: Ventura Fwy W/B Off-ramp, Affected:3 </name><Point><coordinates>-118.46597,34.159982,0</coordinates></Point></Placemark><Placemark><name>Sensor:80321, Onstreet:Fletcher Dr, Fromstreet: Glendale Fwy W/B Off-ramp, Affected:2 </name><Point><coordinates>-118.251886,34.109665,0</coordinates></Point></Placemark><Placemark><name>Sensor:31159, Onstreet:Fountain Av, Fromstreet: Orange Dr, Affected:1 </name><Point><coordinates>-118.341451,34.094301,0</coordinates></Point></Placemark><Placemark><name>Sensor:51180, Onstreet:null, Fromstreet: null, Affected:2 </name><Point><coordinates>-118.409857,34.004672,0</coordinates></Point></Placemark><Placemark><name>Sensor:40054, Onstreet:HOWARD HUGHES PKWY, Fromstreet: PARK TER, Affected:4 </name><Point><coordinates>-118.391467,33.974889,0</coordinates></Point></Placemark><Placemark><name>Sensor:130439, Onstreet:Bond St, Cherry St, Convention Center Dr, Fromstreet: Harbor Fwy N/B Off-ramp, Affected:2 </name><Point><coordinates>-118.272271,34.041022,0</coordinates></Point></Placemark><Placemark><name>Sensor:140323, Onstreet:San Bernardino Fwy E/B Off-ramp, Soto St, Fromstreet: Wabash Av, Affected:3 </name><Point><coordinates>-118.203735,34.052996,0</coordinates></Point></Placemark><Placemark><name>Sensor:50473, Onstreet:La Brea Av, Fromstreet: Venice Bl, Affected:3 </name><Point><coordinates>-118.345248,34.045892,0</coordinates></Point></Placemark><Placemark><name>Sensor:61810, Onstreet:Oxnard St, Fromstreet: Radford Av, Affected:2 </name><Point><coordinates>-118.391941,34.17938,0</coordinates></Point></Placemark><Placemark><name>Sensor:61895, Onstreet:Burbank Bl, Fromstreet: Whitsett Av, Affected:2 </name><Point><coordinates>-118.405009,34.172149,0</coordinates></Point></Placemark><Placemark><name>Sensor:51050, Onstreet:La Cienega Bl, Fromstreet: Rodeo Rd, Affected:1 </name><Point><coordinates>-118.372134,34.021645,0</coordinates></Point></Placemark><Placemark><name>Sensor:130578, Onstreet:Flower St, Fromstreet: Washington Bl, Affected:2 </name><Point><coordinates>-118.270554,34.033791,0</coordinates></Point></Placemark><Placemark><name>Sensor:20511, Onstreet:7th St, Fromstreet: Figueroa St, Affected:4 </name><Point><coordinates>-118.259632,34.049305,0</coordinates></Point></Placemark><Placemark><name>Sensor:91654, Onstreet:Topham St, Victory Bl, Fromstreet: Busway, Affected:2 </name><Point><coordinates>-118.56753,34.185988,0</coordinates></Point></Placemark><Placemark><name>Sensor:60613, Onstreet:Burbank Bl, Fromstreet: Coldwater Canyon Av, Affected:2 </name><Point><coordinates>-118.413034,34.172149,0</coordinates></Point></Placemark><Placemark><name>Sensor:80102, Onstreet:Fletcher Dr, Glendale Bl, Fromstreet: Silver Ridge Av, Affected:4 </name><Point><coordinates>-118.258882,34.104537,0</coordinates></Point></Placemark><Placemark><name>Sensor:140376, Onstreet:1st St, Fromstreet: Soto St, Affected:2 </name><Point><coordinates>-118.209636,34.043662,0</coordinates></Point></Placemark><Placemark><name>Sensor:120696, Onstreet:Lincoln Bl, Fromstreet: Venice Bl, Affected:3 </name><Point><coordinates>-118.452665,33.993986,0</coordinates></Point></Placemark><Placemark><name>Sensor:10115, Onstreet:Santa Monica Fwy E/B Ramps, Fromstreet: Vermont Av, Affected:2 </name><Point><coordinates>-118.291368,34.03643,0</coordinates></Point></Placemark><Placemark><name>Sensor:141169, Onstreet:Avenue 26, Fromstreet: San Fernando Rd, Affected:3 </name><Point><coordinates>-118.225579,34.086856,0</coordinates></Point></Placemark><Placemark><name>Sensor:61857, Onstreet:Hatteras St, Fromstreet: Vineland Av, Affected:2 </name><Point><coordinates>-118.370119,34.175733,0</coordinates></Point></Placemark><Placemark><name>Sensor:31072, Onstreet:Gardner St, Fromstreet: Sunset Bl, Affected:2 </name><Point><coordinates>-118.35263,34.098013,0</coordinates></Point></Placemark><Placemark><name>Sensor:10939, Onstreet:Long Beach Av, Fromstreet: Washington Bl, Affected:2 </name><Point><coordinates>-118.242852,34.020637,0</coordinates></Point></Placemark><Placemark><name>Sensor:11357, Onstreet:Avalon Bl, Fromstreet: Manchester Av, Affected:2 </name><Point><coordinates>-118.264974,33.960127,0</coordinates></Point></Placemark><Placemark><name>Sensor:70348, Onstreet:3rd St, Fromstreet: Normandie Av, Affected:2 </name><Point><coordinates>-118.300209,34.06896,0</coordinates></Point></Placemark><Placemark><name>Sensor:11111, Onstreet:HARBOR FWY S/B RAMPS, Fromstreet: MANCHESTER AV, Affected:3 </name><Point><coordinates>-118.281797,33.960041,0</coordinates></Point></Placemark><Placemark><name>Sensor:120444, Onstreet:Jefferson Bl, Fromstreet: Mesmer Av, Affected:3 </name><Point><coordinates>-118.401166,33.986304,0</coordinates></Point></Placemark><Placemark><name>Sensor:20500, Onstreet:8th St, Fromstreet: Los Angeles St, Affected:4 </name><Point><coordinates>-118.252057,34.04188,0</coordinates></Point></Placemark><Placemark><name>Sensor:61859, Onstreet:Hatteras St, Fromstreet: Vineland Av, Affected:2 </name><Point><coordinates>-118.370119,34.175733,0</coordinates></Point></Placemark><Placemark><name>Sensor:20520, Onstreet:4th St, Fromstreet: Figueroa St, Affected:3 </name><Point><coordinates>-118.255705,34.053532,0</coordinates></Point></Placemark><Placemark><name>Sensor:80003, Onstreet:Los Feliz Bl, Fromstreet: Riverside Dr, Affected:2 </name><Point><coordinates>-118.271391,34.116939,0</coordinates></Point></Placemark><Placemark><name>Sensor:70540, Onstreet:6th St, Fromstreet: Rimpau Bl, Affected:2 </name><Point><coordinates>-118.331387,34.063917,0</coordinates></Point></Placemark><Placemark><name>Sensor:120219, Onstreet:Beethoven St, Fromstreet: Palms Bl, Affected:1 </name><Point><coordinates>-118.446078,34.006388,0</coordinates></Point></Placemark><Placemark><name>Sensor:120171, Onstreet:Horizon Av, Fromstreet: Main St, Affected:2 </name><Point><coordinates>-118.471934,33.989265,0</coordinates></Point></Placemark><Placemark><name>Sensor:50397, Onstreet:Overland Av, Fromstreet: Venice Bl, Affected:4 </name><Point><coordinates>-118.406767,34.018662,0</coordinates></Point></Placemark><Placemark><name>Sensor:140085, Onstreet:Avenue 20, Pasadena Av, Fromstreet: San Fernando Rd, Affected:2 </name><Point><coordinates>-118.221008,34.074153,0</coordinates></Point></Placemark><Placemark><name>Sensor:80074, Onstreet:Ambrose Av, Fromstreet: Vermont Av, Affected:2 </name><Point><coordinates>-118.291583,34.109944,0</coordinates></Point></Placemark><Placemark><name>Sensor:130672, Onstreet:ADAMS BL, Fromstreet: FIGUEROA ST, Affected:2 </name><Point><coordinates>-118.27579,34.028083,0</coordinates></Point></Placemark><Placemark><name>Sensor:10851, Onstreet:Olive St, Fromstreet: Washington Bl, Affected:3 </name><Point><coordinates>-118.267335,34.032289,0</coordinates></Point></Placemark><Placemark><name>Sensor:51147, Onstreet:null, Fromstreet: null, Affected:2 </name><Point><coordinates>-118.411123,34.010122,0</coordinates></Point></Placemark><Placemark><name>Sensor:60291, Onstreet:Tujunga Av, Fromstreet: Ventura Bl, Affected:1 </name><Point><coordinates>-118.378766,34.139941,0</coordinates></Point></Placemark><Placemark><name>Sensor:51128, Onstreet:null, Fromstreet: null, Affected:2 </name><Point><coordinates>-118.405201,34.016924,0</coordinates></Point></Placemark><Placemark><name>Sensor:41396, Onstreet:Bel Air Rd, Beverly Glen Bl, Fromstreet: Sunset Bl, Affected:2 </name><Point><coordinates>-118.435199,34.080782,0</coordinates></Point></Placemark><Placemark><name>Sensor:31362, Onstreet:De Longpre Av, Fromstreet: Wilcox Av, Affected:1 </name><Point><coordinates>-118.330808,34.096125,0</coordinates></Point></Placemark><Placemark><name>Sensor:10632, Onstreet:Flower St, Fromstreet: Gage Av, Affected:2 </name><Point><coordinates>-118.280939,33.982335,0</coordinates></Point></Placemark><Placemark><name>Sensor:140326, Onstreet:Cesar E Chavez Av, Fromstreet: State St, Affected:1 </name><Point><coordinates>-118.214957,34.050077,0</coordinates></Point></Placemark><Placemark><name>Sensor:40669, Onstreet:Olympic Bl, Fromstreet: Westwood Bl, Affected:2 </name><Point><coordinates>-118.431594,34.043832,0</coordinates></Point></Placemark><Placemark><name>Sensor:61713, Onstreet:Tujunga Av, Fromstreet: Victory Bl, Affected:1 </name><Point><coordinates>-118.378809,34.186655,0</coordinates></Point></Placemark><Placemark><name>Sensor:80135, Onstreet:Hollywood Bl, Fromstreet: Normandie Av, Affected:2 </name><Point><coordinates>-118.300338,34.101747,0</coordinates></Point></Placemark><Placemark><name>Sensor:140255, Onstreet:null, Fromstreet: null, Affected:1 </name><Point><coordinates>-118.210043,34.057867,0</coordinates></Point></Placemark><Placemark><name>Sensor:40673, Onstreet:Olympic Bl, Fromstreet: Overland Av, Affected:1 </name><Point><coordinates>-118.428118,34.045913,0</coordinates></Point></Placemark><Placemark><name>Sensor:81498, Onstreet:BEVERLY BL, COUNCIL ST, Fromstreet: VIRGIL AV, Affected:2 </name><Point><coordinates>-118.286583,34.074775,0</coordinates></Point></Placemark><Placemark><name>Sensor:110021, Onstreet:Normandie Av, Fromstreet: Pacific Coast Hwy, Affected:2 </name><Point><coordinates>-118.297374,33.789903,0</coordinates></Point></Placemark><Placemark><name>Sensor:41346, Onstreet:Hilgard Av, Fromstreet: Le Conte Av, Affected:1 </name><Point><coordinates>-118.440907,34.064217,0</coordinates></Point></Placemark><Placemark><name>Sensor:10910, Onstreet:Griffith Av, Fromstreet: Washington Bl, Affected:1 </name><Point><coordinates>-118.253323,34.025852,0</coordinates></Point></Placemark><Placemark><name>Sensor:60185, Onstreet:Hayvenhurst Av, Fromstreet: Ventura Bl, Affected:3 </name><Point><coordinates>-118.49217,34.157579,0</coordinates></Point></Placemark><Placemark><name>Sensor:50302, Onstreet:Palms Bl, Fromstreet: Sepulveda Bl, Affected:2 </name><Point><coordinates>-118.422131,34.019263,0</coordinates></Point></Placemark><Placemark><name>Sensor:50591, Onstreet:La Brea Av, Fromstreet: Washington Bl, Affected:3 </name><Point><coordinates>-118.34733,34.040356,0</coordinates></Point></Placemark><Placemark><name>Sensor:90081, Onstreet:De Soto Av, Fromstreet: Ventura Fwy E/B Ramps, Affected:2 </name><Point><coordinates>-118.587979,34.167663,0</coordinates></Point></Placemark><Placemark><name>Sensor:61703, Onstreet:Radford Av, Fromstreet: Victory Bl, Affected:2 </name><Point><coordinates>-118.391984,34.186676,0</coordinates></Point></Placemark><Placemark><name>Sensor:80076, Onstreet:Ambrose Av, Fromstreet: Hillhurst Av, Affected:2 </name><Point><coordinates>-118.287227,34.109965,0</coordinates></Point></Placemark><Placemark><name>Sensor:70360, Onstreet:6th St, Fromstreet: Rossmore Av, Affected:1 </name><Point><coordinates>-118.327417,34.06381,0</coordinates></Point></Placemark><Placemark><name>Sensor:70455, Onstreet:8th St, Fromstreet: Wilton Pl, Affected:2 </name><Point><coordinates>-118.314049,34.057995,0</coordinates></Point></Placemark><Placemark><name>Sensor:60653, Onstreet:Burbank Bl, Fromstreet: Vineland Av, Affected:2 </name><Point><coordinates>-118.370097,34.172085,0</coordinates></Point></Placemark><Placemark><name>Sensor:130631, Onstreet:23rd St, Figueroa Wy, Fromstreet: Harbor Fwy S/B Ramps, Affected:2 </name><Point><coordinates>-118.274803,34.031044,0</coordinates></Point></Placemark><Placemark><name>Sensor:40989, Onstreet:Pico Bl, Fromstreet: Sawtelle Bl, Affected:3 </name><Point><coordinates>-118.438503,34.035185,0</coordinates></Point></Placemark><Placemark><name>Sensor:80785, Onstreet:Elysian Park Av, Fromstreet: Sunset Bl, Affected:3 </name><Point><coordinates>-118.25077,34.072393,0</coordinates></Point></Placemark><Placemark><name>Sensor:90569, Onstreet:Avenue San Luis, Calabasas Rd, Mulholland Dr, Fromstreet: Valley Circle Bl, Affected:4 </name><Point><coordinates>-118.636129,34.158715,0</coordinates></Point></Placemark><Placemark><name>Sensor:31104, Onstreet:HIGHLAND AV, Fromstreet: SUNSET BL, Affected:3 </name><Point><coordinates>-118.338489,34.09797,0</coordinates></Point></Placemark><Placemark><name>Sensor:31350, Onstreet:Argyle Av, Fromstreet: Sunset Bl, Affected:2 </name><Point><coordinates>-118.324971,34.097949,0</coordinates></Point></Placemark><Placemark><name>Sensor:20113, Onstreet:Grand Av, Fromstreet: Temple St, Affected:4 </name><Point><coordinates>-118.246285,34.05821,0</coordinates></Point></Placemark><Placemark><name>Sensor:60881, Onstreet:Laurel Canyon Bl, Fromstreet: Ventura Fwy W/B Ramps, Affected:1 </name><Point><coordinates>-118.396297,34.154854,0</coordinates></Point></Placemark><Placemark><name>Sensor:80707, Onstreet:Beverly Bl, Fromstreet: Rampart Bl, Affected:2 </name><Point><coordinates>-118.276584,34.06941,0</coordinates></Point></Placemark><Placemark><name>Sensor:81258, Onstreet:Alvarado St, Fromstreet: Sunset Bl, Affected:2 </name><Point><coordinates>-118.26328,34.077564,0</coordinates></Point></Placemark><Placemark><name>Sensor:11365, Onstreet:Central Av, Firestone Bl, Fromstreet: Manchester Av, Affected:2 </name><Point><coordinates>-118.256198,33.960212,0</coordinates></Point></Placemark><Placemark><name>Sensor:140551, Onstreet:4th St, Fromstreet: Euclid Av, Affected:2 </name><Point><coordinates>-118.203284,34.036795,0</coordinates></Point></Placemark><Placemark><name>Sensor:50661, Onstreet:Adams Bl, Fromstreet: Fairfax Av, Affected:2 </name><Point><coordinates>-118.370547,34.032438,0</coordinates></Point></Placemark><Placemark><name>Sensor:41525, Onstreet:Bundy Dr, Fromstreet: Pico Bl, Affected:3 </name><Point><coordinates>-118.450026,34.029412,0</coordinates></Point></Placemark><Placemark><name>Sensor:80322, Onstreet:Fletcher Dr, Fromstreet: Glendale Fwy W/B Off-ramp, Affected:2 </name><Point><coordinates>-118.251886,34.109665,0</coordinates></Point></Placemark><Placemark><name>Sensor:41659, Onstreet:San Diego Fwy N/B Ramps, Fromstreet: Sunset Bl, Affected:3 </name><Point><coordinates>-118.46554,34.073293,0</coordinates></Point></Placemark><Placemark><name>Sensor:120361, Onstreet:Centinela Av, Marina Fwy W/B Ramps, Fromstreet: Sanford St, Affected:2 </name><Point><coordinates>-118.414792,33.986154,0</coordinates></Point></Placemark><Placemark><name>Sensor:11404, Onstreet:Crenshaw Bl, Fromstreet: Vernon Av, Affected:3 </name><Point><coordinates>-118.331708,34.003664,0</coordinates></Point></Placemark><Placemark><name>Sensor:80775, Onstreet:Alvarado St, Fromstreet: Hollywood Fwy N/B Ramps, Affected:2 </name><Point><coordinates>-118.266456,34.07235,0</coordinates></Point></Placemark><Placemark><name>Sensor:50115, Onstreet:La Brea Av, Fromstreet: San Vicente Bl, Affected:2 </name><Point><coordinates>-118.343961,34.050163,0</coordinates></Point></Placemark><Placemark><name>Sensor:40644, Onstreet:Pico Bl, Fromstreet: Sepulveda Bl, Affected:2 </name><Point><coordinates>-118.434963,34.03688,0</coordinates></Point></Placemark><Placemark><name>Sensor:21220, Onstreet:2nd Pl, General Thaddeus Kosciuszko Wy, Fromstreet: Hope St, Affected:2 </name><Point><coordinates>-118.251285,34.054498,0</coordinates></Point></Placemark><Placemark><name>Sensor:31022, Onstreet:Hollywood Bl, Fromstreet: Western Av, Affected:2 </name><Point><coordinates>-118.30905,34.101704,0</coordinates></Point></Placemark><Placemark><name>Sensor:70343, Onstreet:3RD ST, Fromstreet: WESTERN AV, Affected:2 </name><Point><coordinates>-118.308899,34.068938,0</coordinates></Point></Placemark><Placemark><name>Sensor:70311, Onstreet:Beverly Bl, Fromstreet: Western Av, Affected:2 </name><Point><coordinates>-118.308942,34.076212,0</coordinates></Point></Placemark><Placemark><name>Sensor:11548, Onstreet:24th St, 25th St, Fromstreet: Alameda St, Affected:3 </name><Point><coordinates>-118.23944,34.014822,0</coordinates></Point></Placemark><Placemark><name>Sensor:40293, Onstreet:null, Fromstreet: null, Affected:3 </name><Point><coordinates>-118.444854,33.96152,0</coordinates></Point></Placemark><Placemark><name>Sensor:61500, Onstreet:Foothill Bl, Fromstreet: Tujunga Canyon Bl, Affected:1 </name><Point><coordinates>-118.275834,34.246415,0</coordinates></Point></Placemark><Placemark><name>Sensor:41423, Onstreet:Barrington Av, Fromstreet: San Vicente Bl, Affected:2 </name><Point><coordinates>-118.465519,34.053552,0</coordinates></Point></Placemark><Placemark><name>Sensor:41436, Onstreet:Barrington Av, Fromstreet: Wilshire Bl, Affected:2 </name><Point><coordinates>-118.460669,34.049432,0</coordinates></Point></Placemark><Placemark><name>Sensor:80248, Onstreet:Santa Monica Bl, Fromstreet: Vermont Av, Affected:2 </name><Point><coordinates>-118.291561,34.090761,0</coordinates></Point></Placemark><Placemark><name>Sensor:31185, Onstreet:Fountain Av, Fromstreet: Western Av, Affected:2 </name><Point><coordinates>-118.309007,34.094881,0</coordinates></Point></Placemark><Placemark><name>Sensor:141008, Onstreet:Armadale Av, Fromstreet: York Bl, Affected:2 </name><Point><coordinates>-118.211954,34.122476,0</coordinates></Point></Placemark><Placemark><name>Sensor:140691, Onstreet:8TH ST, Fromstreet: LORENA ST, Affected:2 </name><Point><coordinates>-118.2047,34.02156,0</coordinates></Point></Placemark><Placemark><name>Sensor:51272, Onstreet:Clemson St, Fromstreet: La Cienega Bl, Affected:3 </name><Point><coordinates>-118.371984,34.024199,0</coordinates></Point></Placemark><Placemark><name>Sensor:110057, Onstreet:Pacific Coast Hwy, Fromstreet: Wilmington Bl, Affected:3 </name><Point><coordinates>-118.2748,33.790568,0</coordinates></Point></Placemark><Placemark><name>Sensor:50874, Onstreet:Adams Bl, Fromstreet: Central Av, Affected:2 </name><Point><coordinates>-118.254718,34.018728,0</coordinates></Point></Placemark><Placemark><name>Sensor:80571, Onstreet:Union Av, Fromstreet: Wilshire Bl, Affected:2 </name><Point><coordinates>-118.269932,34.055291,0</coordinates></Point></Placemark><Placemark><name>Sensor:60510, Onstreet:Oxnard St, Fromstreet: Van Nuys Bl, Affected:3 </name><Point><coordinates>-118.448461,34.17938,0</coordinates></Point></Placemark><Placemark><name>Sensor:61716, Onstreet:Fair Av, Fromstreet: Victory Bl, Affected:2 </name><Point><coordinates>-118.374475,34.186612,0</coordinates></Point></Placemark><Placemark><name>Sensor:60273, Onstreet:Laurel Canyon Bl, Fromstreet: Ventura Bl, Affected:3 </name><Point><coordinates>-118.395117,34.143567,0</coordinates></Point></Placemark><Placemark><name>Sensor:141082, Onstreet:Avenue 58, Fromstreet: Figueroa St, Affected:2 </name><Point><coordinates>-118.191655,34.110116,0</coordinates></Point></Placemark><Placemark><name>Sensor:140447, Onstreet:Lorena St, Fromstreet: Pomona Fwy E/B Ramps, Affected:2 </name><Point><coordinates>-118.20013,34.02892,0</coordinates></Point></Placemark><Placemark><name>Sensor:10630, Onstreet:Flower St, Fromstreet: Gage Av, Affected:3 </name><Point><coordinates>-118.280939,33.982335,0</coordinates></Point></Placemark><Placemark><name>Sensor:130230, Onstreet:11th St, Fromstreet: Union Av, Affected:2 </name><Point><coordinates>-118.274867,34.047631,0</coordinates></Point></Placemark><Placemark><name>Sensor:20768, Onstreet:Hill St, Fromstreet: Olympic Bl, Affected:2 </name><Point><coordinates>-118.258237,34.041537,0</coordinates></Point></Placemark><Placemark><name>Sensor:120143, Onstreet:North Venice Bl, Ocean Av, Fromstreet: Venice Wy, Affected:2 </name><Point><coordinates>-118.465883,33.987398,0</coordinates></Point></Placemark><Placemark><name>Sensor:21181, Onstreet:6th St, Fromstreet: Alameda St, Affected:2 </name><Point><coordinates>-118.238239,34.038104,0</coordinates></Point></Placemark><Placemark><name>Sensor:80717, Onstreet:Beaudry Av, Fromstreet: Temple St, Affected:2 </name><Point><coordinates>-118.251199,34.063188,0</coordinates></Point></Placemark><Placemark><name>Sensor:50615, Onstreet:Arlington Av, Fromstreet: Washington Bl, Affected:2 </name><Point><coordinates>-118.31746,34.039949,0</coordinates></Point></Placemark><Placemark><name>Sensor:21048, Onstreet:College St, Fromstreet: North Broadway, Affected:2 </name><Point><coordinates>-118.237338,34.063939,0</coordinates></Point></Placemark><Placemark><name>Sensor:50217, Onstreet:Pico Bl, Fromstreet: Vermont Av, Affected:2 </name><Point><coordinates>-118.291368,34.047223,0</coordinates></Point></Placemark><Placemark><name>Sensor:120141, Onstreet:North Venice Bl, Ocean Av, Fromstreet: Venice Wy, Affected:2 </name><Point><coordinates>-118.465883,33.987398,0</coordinates></Point></Placemark><Placemark><name>Sensor:30888, Onstreet:Franklin Av, Fromstreet: La Brea Av, Affected:2 </name><Point><coordinates>-118.345742,34.103764,0</coordinates></Point></Placemark><Placemark><name>Sensor:60161, Onstreet:Louise Av, Fromstreet: Ventura Bl, Affected:3 </name><Point><coordinates>-118.509636,34.16084,0</coordinates></Point></Placemark><Placemark><name>Sensor:140605, Onstreet:1st St, Fromstreet: Gless St, Affected:2 </name><Point><coordinates>-118.222703,34.047395,0</coordinates></Point></Placemark><Placemark><name>Sensor:61007, Onstreet:Fiume Wk, San Diego Fwy S/B On-ramp, Fromstreet: Sepulveda Bl, Affected:2 </name><Point><coordinates>-118.469897,34.148695,0</coordinates></Point></Placemark><Placemark><name>Sensor:50504, Onstreet:Arlington Av, Fromstreet: Venice Bl, Affected:2 </name><Point><coordinates>-118.31746,34.043532,0</coordinates></Point></Placemark><Placemark><name>Sensor:60544, Onstreet:Lankershim Bl, Fromstreet: Oxnard St, Affected:2 </name><Point><coordinates>-118.383208,34.17938,0</coordinates></Point></Placemark><Placemark><name>Sensor:141146, Onstreet:Avenue 28, Cypress Av, Fromstreet: Pepper Av, Affected:2 </name><Point><coordinates>-118.223176,34.090911,0</coordinates></Point></Placemark><Placemark><name>Sensor:11156, Onstreet:Jefferson Bl, Fromstreet: Western Av, Affected:2 </name><Point><coordinates>-118.308663,34.025508,0</coordinates></Point></Placemark><Placemark><name>Sensor:61911, Onstreet:BURBANK BL, Fromstreet: COLFAX AV, Affected:2 </name><Point><coordinates>-118.387542,34.172128,0</coordinates></Point></Placemark><Placemark><name>Sensor:50519, Onstreet:Normandie Av, Fromstreet: Venice Bl, Affected:2 </name><Point><coordinates>-118.300273,34.043747,0</coordinates></Point></Placemark><Placemark><name>Sensor:41278, Onstreet:Beverly Glen Bl, Fromstreet: Wilshire Bl, Affected:2 </name><Point><coordinates>-118.428676,34.066942,0</coordinates></Point></Placemark><Placemark><name>Sensor:41184, Onstreet:Ohio Av, Fromstreet: Sepulveda Bl, Affected:2 </name><Point><coordinates>-118.446486,34.050355,0</coordinates></Point></Placemark><Placemark><name>Sensor:31292, Onstreet:Franklin Av, Fromstreet: Orchid Av, Affected:2 </name><Point><coordinates>-118.339992,34.104107,0</coordinates></Point></Placemark><Placemark><name>Sensor:60133, Onstreet:Hayvenhurst Av, Fromstreet: Ventura Fwy W/B Off-ramp, Affected:3 </name><Point><coordinates>-118.49217,34.165904,0</coordinates></Point></Placemark><Placemark><name>Sensor:130341, Onstreet:Hoover St, Fromstreet: Pico Bl, Affected:2 </name><Point><coordinates>-118.284029,34.047223,0</coordinates></Point></Placemark><Placemark><name>Sensor:140573, Onstreet:Cesar E Chavez Av, Fromstreet: Warren St, Affected:2 </name><Point><coordinates>-118.2203,34.052373,0</coordinates></Point></Placemark><Placemark><name>Sensor:40664, Onstreet:Olympic Bl, Fromstreet: Westwood Bl, Affected:3 </name><Point><coordinates>-118.431594,34.043832,0</coordinates></Point></Placemark><Placemark><name>Sensor:21000, Onstreet:Cesar E Chavez Av, Fromstreet: Union Station Dwy, Affected:2 </name><Point><coordinates>-118.236115,34.057866,0</coordinates></Point></Placemark><Placemark><name>Sensor:10552, Onstreet:Broadway, Fromstreet: Gage Av, Affected:2 </name><Point><coordinates>-118.278149,33.982357,0</coordinates></Point></Placemark><Placemark><name>Sensor:80300, Onstreet:Scott Av, Fromstreet: Stadium Wy, Affected:2 </name><Point><coordinates>-118.248732,34.077307,0</coordinates></Point></Placemark><Placemark><name>Sensor:50337, Onstreet:National Bl, Fromstreet: Robertson Bl, Affected:2 </name><Point><coordinates>-118.390674,34.031237,0</coordinates></Point></Placemark><Placemark><name>Sensor:51109, Onstreet:null, Fromstreet: null, Affected:2 </name><Point><coordinates>-118.390116,34.025915,0</coordinates></Point></Placemark><Placemark><name>Sensor:70412, Onstreet:Wilshire Bl, Fromstreet: Wilton Pl, Affected:2 </name><Point><coordinates>-118.314027,34.061621,0</coordinates></Point></Placemark><Placemark><name>Sensor:140609, Onstreet:1st St, Fromstreet: State St, Affected:1 </name><Point><coordinates>-118.217339,34.046473,0</coordinates></Point></Placemark><Placemark><name>Sensor:41485, Onstreet:Santa Monica Bl, Fromstreet: Sawtelle Bl, Affected:1 </name><Point><coordinates>-118.448309,34.046428,0</coordinates></Point></Placemark><Placemark><name>Sensor:141055, Onstreet:Avenue 50, Fromstreet: El Paso Dr, Affected:1 </name><Point><coordinates>-118.207834,34.113034,0</coordinates></Point></Placemark><Placemark><name>Sensor:41327, Onstreet:Gayley Av, Fromstreet: Le Conte Av, Affected:1 </name><Point><coordinates>-118.448031,34.063723,0</coordinates></Point></Placemark><Placemark><name>Sensor:60695, Onstreet:MAGNOLIA BL, Fromstreet: WHITSETT AV, Affected:2 </name><Point><coordinates>-118.405009,34.164853,0</coordinates></Point></Placemark><Placemark><name>Sensor:80664, Onstreet:3rd St, Fromstreet: Rampart Bl, Affected:2 </name><Point><coordinates>-118.278644,34.06617,0</coordinates></Point></Placemark><Placemark><name>Sensor:41152, Onstreet:Avenue Of The Stars, Fromstreet: Santa Monica Bl, Affected:1 </name><Point><coordinates>-118.41829,34.061277,0</coordinates></Point></Placemark><Placemark><name>Sensor:60823, Onstreet:Coldwater Canyon Av, Fromstreet: Ventura Fwy E/B Ramps, Affected:1 </name><Point><coordinates>-118.41357,34.156356,0</coordinates></Point></Placemark><Placemark><name>Sensor:70364, Onstreet:6th St, Fromstreet: Irving Bl, Affected:1 </name><Point><coordinates>-118.31834,34.063488,0</coordinates></Point></Placemark><Placemark><name>Sensor:20806, Onstreet:Ramirez St, Santa Ana Fwy N/B Ramps, Fromstreet: Vignes St, Affected:3 </name><Point><coordinates>-118.232038,34.055206,0</coordinates></Point></Placemark><Placemark><name>Sensor:20595, Onstreet:2nd St, Fromstreet: Figueroa St, Affected:3 </name><Point><coordinates>-118.25298,34.056472,0</coordinates></Point></Placemark><Placemark><name>Sensor:40499, Onstreet:Falmouth Av, Fromstreet: Westchester Pkwy, Affected:4 </name><Point><coordinates>-118.433052,33.951821,0</coordinates></Point></Placemark><Placemark><name>Sensor:141006, Onstreet:Armadale Av, Fromstreet: York Bl, Affected:2 </name><Point><coordinates>-118.211954,34.122476,0</coordinates></Point></Placemark><Placemark><name>Sensor:40384, Onstreet:Douglas St, Fromstreet: Imperial Hwy, Affected:6 </name><Point><coordinates>-118.382927,33.930986,0</coordinates></Point></Placemark><Placemark><name>Sensor:60237, Onstreet:Beverly Glen Bl, Tyrone Av, Fromstreet: Ventura Bl, Affected:2 </name><Point><coordinates>-118.445456,34.150798,0</coordinates></Point></Placemark><Placemark><name>Sensor:130148, Onstreet:Alvarado St, Fromstreet: Olympic Bl, Affected:3 </name><Point><coordinates>-118.279652,34.051643,0</coordinates></Point></Placemark><Placemark><name>Sensor:50847, Onstreet:Soto St, Fromstreet: Washington Bl, Affected:2 </name><Point><coordinates>-118.219914,34.017247,0</coordinates></Point></Placemark><Placemark><name>Sensor:50086, Onstreet:Olympic Bl, Fromstreet: Vermont Av, Affected:2 </name><Point><coordinates>-118.291411,34.052523,0</coordinates></Point></Placemark><Placemark><name>Sensor:50659, Onstreet:Adams Bl, Fromstreet: Fairfax Av, Affected:2 </name><Point><coordinates>-118.370547,34.032438,0</coordinates></Point></Placemark><Placemark><name>Sensor:120430, Onstreet:Centinela Av, Inglewood Bl, Fromstreet: Jefferson Bl, Affected:3 </name><Point><coordinates>-118.405029,33.983729,0</coordinates></Point></Placemark><Placemark><name>Sensor:80158, Onstreet:Normandie Av, Fromstreet: Sunset Bl, Affected:2 </name><Point><coordinates>-118.300338,34.098099,0</coordinates></Point></Placemark><Placemark><name>Sensor:10886, Onstreet:Maple Av, Fromstreet: Washington Bl, Affected:1 </name><Point><coordinates>-118.261263,34.029499,0</coordinates></Point></Placemark><Placemark><name>Sensor:81273, Onstreet:Hollywood Fwy S/B Off-ramp, Fromstreet: Silver Lake Bl, Affected:2 </name><Point><coordinates>-118.282678,34.076813,0</coordinates></Point></Placemark><Placemark><name>Sensor:10274, Onstreet:Exposition Bl, Flower St, Fromstreet: Harbor Fwy S/B Off-ramp, Affected:4 </name><Point><coordinates>-118.280403,34.018427,0</coordinates></Point></Placemark><Placemark><name>Sensor:130339, Onstreet:Hoover St, Fromstreet: Pico Bl, Affected:2 </name><Point><coordinates>-118.284029,34.047223,0</coordinates></Point></Placemark><Placemark><name>Sensor:140508, Onstreet:Alhambra Rd, Huntington Dr, Fromstreet: Kendall Av, Affected:1 </name><Point><coordinates>-118.155155,34.098572,0</coordinates></Point></Placemark><Placemark><name>Sensor:90310, Onstreet:Owensmouth Av, Fromstreet: Oxnard St, Affected:2 </name><Point><coordinates>-118.601347,34.17925,0</coordinates></Point></Placemark><Placemark><name>Sensor:60900, Onstreet:RIVERSIDE DR, Fromstreet: VINELAND AV, Affected:3 </name><Point><coordinates>-118.37014,34.152365,0</coordinates></Point></Placemark><Placemark><name>Sensor:41459, Onstreet:CENTINELA AV, Fromstreet: SANTA MONICA BL, Affected:2 </name><Point><coordinates>-118.467578,34.038532,0</coordinates></Point></Placemark><Placemark><name>Sensor:50646, Onstreet:Vermont Av, Fromstreet: Washington Bl, Affected:2 </name><Point><coordinates>-118.291368,34.039949,0</coordinates></Point></Placemark><Placemark><name>Sensor:130139, Onstreet:9th St, Fromstreet: Olive St, Affected:3 </name><Point><coordinates>-118.25798,34.043683,0</coordinates></Point></Placemark><Placemark><name>Sensor:91632, Onstreet:Bella Vista Ln, De Soto Av, Fromstreet: Erwin St, Affected:3 </name><Point><coordinates>-118.590124,34.182748,0</coordinates></Point></Placemark><Placemark><name>Sensor:141217, Onstreet:San Pascual Av, Fromstreet: York Bl, Affected:2 </name><Point><coordinates>-118.178973,34.113549,0</coordinates></Point></Placemark><Placemark><name>Sensor:130348, Onstreet:Alvarado St, Fromstreet: Pico Bl, Affected:2 </name><Point><coordinates>-118.282506,34.047223,0</coordinates></Point></Placemark><Placemark><name>Sensor:80162, Onstreet:Sunset Bl, Fromstreet: Vermont Av, Affected:3 </name><Point><coordinates>-118.291562,34.098164,0</coordinates></Point></Placemark><Placemark><name>Sensor:130154, Onstreet:Burlington Av, Fromstreet: Olympic Bl, Affected:2 </name><Point><coordinates>-118.276326,34.050141,0</coordinates></Point></Placemark><Placemark><name>Sensor:90210, Onstreet:Burbank Bl, Fromstreet: Owensmouth Av, Affected:2 </name><Point><coordinates>-118.601647,34.173264,0</coordinates></Point></Placemark><Placemark><name>Sensor:130085, Onstreet:Alvarado St, Fromstreet: James M Wood Bl, Affected:2 </name><Point><coordinates>-118.278579,34.053296,0</coordinates></Point></Placemark><Placemark><name>Sensor:120081, Onstreet:Culver Bl, Fromstreet: Marina Expy W/B, Affected:1 </name><Point><coordinates>-118.427817,33.982098,0</coordinates></Point></Placemark><Placemark><name>Sensor:41307, Onstreet:Kinross Av, Fromstreet: Westwood Bl, Affected:2 </name><Point><coordinates>-118.445241,34.060869,0</coordinates></Point></Placemark><Placemark><name>Sensor:11389, Onstreet:ANGELES VISTA BL, SANTA ROSALIA DR, Fromstreet: STOCKER ST, Affected:2 </name><Point><coordinates>-118.337223,34.00714,0</coordinates></Point></Placemark><Placemark><name>Sensor:50821, Onstreet:16th St, Fromstreet: San Pedro St, Affected:3 </name><Point><coordinates>-118.255727,34.029907,0</coordinates></Point></Placemark><Placemark><name>Sensor:130202, Onstreet:Hope St, Fromstreet: Olympic Bl, Affected:2 </name><Point><coordinates>-118.261434,34.04364,0</coordinates></Point></Placemark><Placemark><name>Sensor:90075, Onstreet:De Soto Av, Serrania Av, Fromstreet: Ventura Bl, Affected:3 </name><Point><coordinates>-118.588021,34.16644,0</coordinates></Point></Placemark><Placemark><name>Sensor:51093, Onstreet:null, Fromstreet: null, Affected:3 </name><Point><coordinates>-118.374044,34.032481,0</coordinates></Point></Placemark><Placemark><name>Sensor:41353, Onstreet:Gayley Av, Strathmore Dr, Fromstreet: Strathmore Pl, Affected:2 </name><Point><coordinates>-118.448717,34.068637,0</coordinates></Point></Placemark><Placemark><name>Sensor:70172, Onstreet:Burton Wy, La Cienega Bl, Fromstreet: San Vicente Bl, Affected:3 </name><Point><coordinates>-118.376319,34.071298,0</coordinates></Point></Placemark><Placemark><name>Sensor:80155, Onstreet:Normandie Av, Fromstreet: Sunset Bl, Affected:2 </name><Point><coordinates>-118.300338,34.098099,0</coordinates></Point></Placemark><Placemark><name>Sensor:40175, Onstreet:Sepulveda Bl, Fromstreet: Westchester Pkwy, Affected:3 </name><Point><coordinates>-118.395995,33.954461,0</coordinates></Point></Placemark><Placemark><name>Sensor:90257, Onstreet:Califa St, Fromstreet: Canoga Av, Affected:1 </name><Point><coordinates>-118.597184,34.177255,0</coordinates></Point></Placemark><Placemark><name>Sensor:11433, Onstreet:Vernon Av, Fromstreet: Western Av, Affected:2 </name><Point><coordinates>-118.308727,34.003707,0</coordinates></Point></Placemark><Placemark><name>Sensor:11533, Onstreet:null, Fromstreet: null, Affected:3 </name><Point><coordinates>-118.291539,33.92927,0</coordinates></Point></Placemark><Placemark><name>Sensor:90527, Onstreet:Long Valley Rd, Valley Circle Bl, Fromstreet: Ventura Fwy W/B Off-ramp, Affected:2 </name><Point><coordinates>-118.637567,34.160153,0</coordinates></Point></Placemark><Placemark><name>Sensor:11491, Onstreet:null, Fromstreet: null, Affected:2 </name><Point><coordinates>-118.330635,33.98064,0</coordinates></Point></Placemark><Placemark><name>Sensor:80713, Onstreet:Beverly Bl, Fromstreet: Rampart Bl, Affected:2 </name><Point><coordinates>-118.276584,34.06941,0</coordinates></Point></Placemark><Placemark><name>Sensor:40306, Onstreet:Imperial Hwy, Fromstreet: West Imperial Terminal Dwy, Affected:2 </name><Point><coordinates>-118.407968,33.931201,0</coordinates></Point></Placemark><Placemark><name>Sensor:61904, Onstreet:Burbank Bl, Hollywood Fwy S/B Off-ramp, Fromstreet: Morella Av, Affected:2 </name><Point><coordinates>-118.389753,34.172106,0</coordinates></Point></Placemark><Placemark><name>Sensor:130406, Onstreet:Flower St, Fromstreet: Pico Bl, Affected:2 </name><Point><coordinates>-118.266584,34.040014,0</coordinates></Point></Placemark><Placemark><name>Sensor:61814, Onstreet:COLFAX AV, Fromstreet: OXNARD ST, Affected:2 </name><Point><coordinates>-118.387607,34.179359,0</coordinates></Point></Placemark><Placemark><name>Sensor:40965, Onstreet:Overland Av, Fromstreet: Pico Bl, Affected:4 </name><Point><coordinates>-118.424599,34.041901,0</coordinates></Point></Placemark><Placemark><name>Sensor:91665, Onstreet:Victory Bl, Fromstreet: Yolanda Av, Affected:3 </name><Point><coordinates>-118.540192,34.186589,0</coordinates></Point></Placemark><Placemark><name>Sensor:60888, Onstreet:Laurel Canyon Bl, Fromstreet: Ventura Fwy E/B Ramps, Affected:3 </name><Point><coordinates>-118.396297,34.154017,0</coordinates></Point></Placemark><Placemark><name>Sensor:41028, Onstreet:Century Park East, Fromstreet: Pico Bl, Affected:5 </name><Point><coordinates>-118.406124,34.052501,0</coordinates></Point></Placemark><Placemark><name>Sensor:50925, Onstreet:Adams Bl, Fromstreet: Hillcrest Dr, Affected:2 </name><Point><coordinates>-118.342673,34.032589,0</coordinates></Point></Placemark><Placemark><name>Sensor:140068, Onstreet:Avenue 28, Pasadena Av, Fromstreet: Workman St, Affected:1 </name><Point><coordinates>-118.2147,34.079324,0</coordinates></Point></Placemark><Placemark><name>Sensor:21081, Onstreet:North Broadway, Fromstreet: Ord St, Affected:1 </name><Point><coordinates>-118.239119,34.060313,0</coordinates></Point></Placemark><Placemark><name>Sensor:31295, Onstreet:Wilcox Av, Fromstreet: Yucca St, Affected:1 </name><Point><coordinates>-118.330894,34.103936,0</coordinates></Point></Placemark><Placemark><name>Sensor:70369, Onstreet:6th St, Fromstreet: Wilton Pl, Affected:1 </name><Point><coordinates>-118.313834,34.063295,0</coordinates></Point></Placemark><Placemark><name>Sensor:120154, Onstreet:Abbot Kinney Bl, Fromstreet: Venice Bl, Affected:1 </name><Point><coordinates>-118.46245,33.988986,0</coordinates></Point></Placemark><Placemark><name>Sensor:70067, Onstreet:Beverly Bl, Fromstreet: Crescent Heights Bl, Affected:1 </name><Point><coordinates>-118.365655,34.07604,0</coordinates></Point></Placemark><Placemark><name>Sensor:60947, Onstreet:Coldwater Canyon Av, Fromstreet: Moorpark St, Affected:1 </name><Point><coordinates>-118.41357,34.150348,0</coordinates></Point></Placemark><Placemark><name>Sensor:140452, Onstreet:Lorena St, Fromstreet: Whittier Bl, Affected:2 </name><Point><coordinates>-118.200859,34.027762,0</coordinates></Point></Placemark><Placemark><name>Sensor:10845, Onstreet:Grand Av, Fromstreet: Washington Bl, Affected:1 </name><Point><coordinates>-118.268086,34.032632,0</coordinates></Point></Placemark><Placemark><name>Sensor:30939, Onstreet:Lexington Av, Fromstreet: Western Av, Affected:1 </name><Point><coordinates>-118.309007,34.092756,0</coordinates></Point></Placemark><Placemark><name>Sensor:11379, Onstreet:MARLTON AV, Fromstreet: SANTA ROSALIA DR, Affected:1 </name><Point><coordinates>-118.339605,34.010466,0</coordinates></Point></Placemark><Placemark><name>Sensor:130094, Onstreet:James M Wood Bl, Fromstreet: Union Av, Affected:1 </name><Point><coordinates>-118.272914,34.050764,0</coordinates></Point></Placemark><Placemark><name>Sensor:11392, Onstreet:Crenshaw Bl, Fromstreet: Stocker St, Affected:1 </name><Point><coordinates>-118.334927,34.00847,0</coordinates></Point></Placemark><Placemark><name>Sensor:80596, Onstreet:Vermont Av, Fromstreet: Wilshire Bl, Affected:2 </name><Point><coordinates>-118.291454,34.06175,0</coordinates></Point></Placemark><Placemark><name>Sensor:41345, Onstreet:Hilgard Av, Fromstreet: Le Conte Av, Affected:2 </name><Point><coordinates>-118.440907,34.064217,0</coordinates></Point></Placemark><Placemark><name>Sensor:51184, Onstreet:null, Fromstreet: null, Affected:2 </name><Point><coordinates>-118.41241,34.002848,0</coordinates></Point></Placemark><Placemark><name>Sensor:120725, Onstreet:Marina Expy E/B, Fromstreet: Mindanao Wy, Affected:3 </name><Point><coordinates>-118.437923,33.982871,0</coordinates></Point></Placemark><Placemark><name>Sensor:10298, Onstreet:37th St, Fromstreet: Grand Av, Affected:2 </name><Point><coordinates>-118.278043,34.016796,0</coordinates></Point></Placemark><Placemark><name>Sensor:50812, Onstreet:18th St, Fromstreet: Maple Av, Affected:1 </name><Point><coordinates>-118.259997,34.03083,0</coordinates></Point></Placemark><Placemark><name>Sensor:70012, Onstreet:Fairfax Av, Fromstreet: Melrose Av, Affected:2 </name><Point><coordinates>-118.361256,34.083744,0</coordinates></Point></Placemark><Placemark><name>Sensor:130637, Onstreet:23rd St, Fromstreet: Figueroa St, Affected:4 </name><Point><coordinates>-118.274094,34.030701,0</coordinates></Point></Placemark><Placemark><name>Sensor:130456, Onstreet:Burlington Av, Fromstreet: Venice Bl, Affected:2 </name><Point><coordinates>-118.280661,34.042266,0</coordinates></Point></Placemark><Placemark><name>Sensor:40540, Onstreet:Pico Bl, Fromstreet: Sawtelle Bl, Affected:2 </name><Point><coordinates>-118.438503,34.035185,0</coordinates></Point></Placemark><Placemark><name>Sensor:140136, Onstreet:Daly St, Fromstreet: North Broadway, Affected:2 </name><Point><coordinates>-118.215494,34.073681,0</coordinates></Point></Placemark><Placemark><name>Sensor:31178, Onstreet:FOUNTAIN AV, Fromstreet: WILTON PL, Affected:2 </name><Point><coordinates>-118.313363,34.094666,0</coordinates></Point></Placemark><Placemark><name>Sensor:40448, Onstreet:La Tijera Pkwy, Fromstreet: Westchester Pkwy, Affected:3 </name><Point><coordinates>-118.40093,33.954654,0</coordinates></Point></Placemark><Placemark><name>Sensor:50478, Onstreet:La Brea Av, Fromstreet: Venice Bl, Affected:2 </name><Point><coordinates>-118.345248,34.045892,0</coordinates></Point></Placemark><Placemark><name>Sensor:60808, Onstreet:Coldwater Canyon Av, Fromstreet: Riverside Dr, Affected:2 </name><Point><coordinates>-118.41357,34.157644,0</coordinates></Point></Placemark><Placemark><name>Sensor:80771, Onstreet:Alvarado St, Fromstreet: Hollywood Fwy N/B Ramps, Affected:2 </name><Point><coordinates>-118.266456,34.07235,0</coordinates></Point></Placemark><Placemark><name>Sensor:31265, Onstreet:Cahuenga Bl, Fromstreet: De Longpre Av, Affected:2 </name><Point><coordinates>-118.329306,34.096125,0</coordinates></Point></Placemark><Placemark><name>Sensor:31406, Onstreet:EL CENTRO AV, Fromstreet: SANTA MONICA BL, Affected:2 </name><Point><coordinates>-118.324284,34.090718,0</coordinates></Point></Placemark><Placemark><name>Sensor:21266, Onstreet:Alameda St, College St, Fromstreet: North Spring St, Affected:2 </name><Point><coordinates>-118.235879,34.063488,0</coordinates></Point></Placemark><Placemark><name>Sensor:50202, Onstreet:Pico Bl, Fromstreet: Western Av, Affected:2 </name><Point><coordinates>-118.308877,34.04718,0</coordinates></Point></Placemark><Placemark><name>Sensor:51062, Onstreet:Bundy Dr, Fromstreet: Ocean Park Bl, Affected:2 </name><Point><coordinates>-118.446292,34.024627,0</coordinates></Point></Placemark><Placemark><name>Sensor:50774, Onstreet:8th St, Fromstreet: Soto St, Affected:2 </name><Point><coordinates>-118.21927,34.027997,0</coordinates></Point></Placemark><Placemark><name>Sensor:31052, Onstreet:Crescent Heights Bl, Fromstreet: Sunset Bl, Affected:3 </name><Point><coordinates>-118.365483,34.09797,0</coordinates></Point></Placemark><Placemark><name>Sensor:50297, Onstreet:Palms Bl, Fromstreet: Sawtelle Bl, Affected:2 </name><Point><coordinates>-118.425006,34.018319,0</coordinates></Point></Placemark><Placemark><name>Sensor:60116, Onstreet:Balboa Bl, Fromstreet: Ventura Fwy E/B Ramps, Affected:1 </name><Point><coordinates>-118.500903,34.169981,0</coordinates></Point></Placemark><Placemark><name>Sensor:60664, Onstreet:Chandler Bl (South), Fromstreet: Lankershim Bl, Affected:2 </name><Point><coordinates>-118.376341,34.168094,0</coordinates></Point></Placemark><Placemark><name>Sensor:140681, Onstreet:7TH ST, Fromstreet: LORENA ST, Affected:2 </name><Point><coordinates>-118.202104,34.02568,0</coordinates></Point></Placemark><Placemark><name>Sensor:130620, Onstreet:Grand Av Bet 21st St, Fromstreet: Washington Bl, Affected:1 </name><Point><coordinates>-118.268515,34.031967,0</coordinates></Point></Placemark><Placemark><name>Sensor:11566, Onstreet:Alameda St, Fromstreet: Vernon Av, Affected:2 </name><Point><coordinates>-118.238861,34.003879,0</coordinates></Point></Placemark><Placemark><name>Sensor:10396, Onstreet:Grand Av, Fromstreet: Vernon Av (Harbor Fwy N/B Ramps), Affected:2 </name><Point><coordinates>-118.280295,34.00375,0</coordinates></Point></Placemark><Placemark><name>Sensor:40362, Onstreet:CENTER DR, Fromstreet: SEPULVEDA BL, Affected:5 </name><Point><coordinates>-118.393763,33.978129,0</coordinates></Point></Placemark><Placemark><name>Sensor:40153, Onstreet:ARBOR VITAE ST, Fromstreet: AVIATION BL, Affected:2 </name><Point><coordinates>-118.376812,33.952573,0</coordinates></Point></Placemark><Placemark><name>Sensor:41270, Onstreet:Westholme Av, Fromstreet: Wilshire Bl, Affected:3 </name><Point><coordinates>-118.433547,34.061535,0</coordinates></Point></Placemark><Placemark><name>Sensor:11320, Onstreet:null, Fromstreet: null, Affected:2 </name><Point><coordinates>-118.300079,33.959933,0</coordinates></Point></Placemark><Placemark><name>Sensor:140074, Onstreet:Avenue 26, Daly St, Fromstreet: Pasadena Av, Affected:1 </name><Point><coordinates>-118.215623,34.076513,0</coordinates></Point></Placemark><Placemark><name>Sensor:91590, Onstreet:De Soto Av, Fromstreet: Sherman Wy, Affected:4 </name><Point><coordinates>-118.588258,34.201094,0</coordinates></Point></Placemark><Placemark><name>Sensor:31190, Onstreet:Lexington Av, Fromstreet: Western Av, Affected:2 </name><Point><coordinates>-118.309007,34.092756,0</coordinates></Point></Placemark><Placemark><name>Sensor:21505, Onstreet:7TH ST, Fromstreet: SAN PEDRO ST, Affected:2 </name><Point><coordinates>-118.246586,34.040614,0</coordinates></Point></Placemark><Placemark><name>Sensor:80067, Onstreet:Glendale Bl, Fromstreet: Riverside Dr, Affected:3 </name><Point><coordinates>-118.264761,34.111189,0</coordinates></Point></Placemark><Placemark><name>Sensor:80042, Onstreet:HILLHURST AV, Fromstreet: LOS FELIZ BL, Affected:1 </name><Point><coordinates>-118.287206,34.111897,0</coordinates></Point></Placemark><Placemark><name>Sensor:31026, Onstreet:Hollywood Bl, Fromstreet: Western Av, Affected:2 </name><Point><coordinates>-118.30905,34.101704,0</coordinates></Point></Placemark><Placemark><name>Sensor:90297, Onstreet:Oxnard St, Fromstreet: Topanga Canyon Bl, Affected:2 </name><Point><coordinates>-118.605188,34.179229,0</coordinates></Point></Placemark><Placemark><name>Sensor:10771, Onstreet:null, Fromstreet: null, Affected:2 </name><Point><coordinates>-118.282462,33.952767,0</coordinates></Point></Placemark><Placemark><name>Sensor:31261, Onstreet:Hollywood Bl, Fromstreet: Orange Dr, Affected:1 </name><Point><coordinates>-118.341215,34.101511,0</coordinates></Point></Placemark><Placemark><name>Sensor:10751, Onstreet:76th St, Fromstreet: Figueroa St, Affected:2 </name><Point><coordinates>-118.282505,33.970705,0</coordinates></Point></Placemark><Placemark><name>Sensor:140356, Onstreet:1st St, Fromstreet: Boyle Av, Affected:2 </name><Point><coordinates>-118.219656,34.047224,0</coordinates></Point></Placemark><Placemark><name>Sensor:130470, Onstreet:Convention Center Dr, Fromstreet: Venice Bl, Affected:3 </name><Point><coordinates>-118.271541,34.038168,0</coordinates></Point></Placemark><Placemark><name>Sensor:21024, Onstreet:Alameda St, Fromstreet: Temple St, Affected:2 </name><Point><coordinates>-118.237853,34.051021,0</coordinates></Point></Placemark><Placemark><name>Sensor:141089, Onstreet:Avenue 57, Fromstreet: Figueroa St, Affected:2 </name><Point><coordinates>-118.192513,34.109687,0</coordinates></Point></Placemark><Placemark><name>Sensor:130257, Onstreet:Chick Hearn Ct, Fromstreet: Georgia St, Affected:2 </name><Point><coordinates>-118.26785,34.044155,0</coordinates></Point></Placemark><Placemark><name>Sensor:70432, Onstreet:Hobart Bl, Fromstreet: Wilshire Bl, Affected:2 </name><Point><coordinates>-118.305208,34.061707,0</coordinates></Point></Placemark><Placemark><name>Sensor:130542, Onstreet:18th St, Fromstreet: Olive St, Affected:4 </name><Point><coordinates>-118.266284,34.033683,0</coordinates></Point></Placemark><Placemark><name>Sensor:141073, Onstreet:Avenue 60, Fromstreet: Figueroa St, Affected:2 </name><Point><coordinates>-118.188908,34.111425,0</coordinates></Point></Placemark><Placemark><name>Sensor:50910, Onstreet:Jefferson Bl, Fromstreet: La Brea Av, Affected:3 </name><Point><coordinates>-118.354711,34.025529,0</coordinates></Point></Placemark><Placemark><name>Sensor:90434, Onstreet:Canoga Av, Fromstreet: Victory Bl, Affected:3 </name><Point><coordinates>-118.59727,34.188391,0</coordinates></Point></Placemark><Placemark><name>Sensor:41680, Onstreet:Bellagio Wy, Fromstreet: Sunset Bl, Affected:5 </name><Point><coordinates>-118.454447,34.076533,0</coordinates></Point></Placemark><Placemark><name>Sensor:91754, Onstreet:De Soto Av, Fromstreet: Kittridge St, Affected:2 </name><Point><coordinates>-118.588193,34.191181,0</coordinates></Point></Placemark><Placemark><name>Sensor:70045, Onstreet:Beverly Bl, Fromstreet: San Vicente Bl, Affected:2 </name><Point><coordinates>-118.379388,34.076641,0</coordinates></Point></Placemark><Placemark><name>Sensor:60109, Onstreet:Balboa Bl, Fromstreet: Ventura Fwy E/B Ramps, Affected:1 </name><Point><coordinates>-118.500903,34.169981,0</coordinates></Point></Placemark><Placemark><name>Sensor:91611, Onstreet:Tampa Av, Topham St, Fromstreet: Busway, Affected:2 </name><Point><coordinates>-118.55326,34.181053,0</coordinates></Point></Placemark><Placemark><name>Sensor:80695, Onstreet:1st St, 2nd St, Beverly Bl, Glendale Bl, Fromstreet: Lucas Av, Affected:1 </name><Point><coordinates>-118.259461,34.061857,0</coordinates></Point></Placemark><Placemark><name>Sensor:31333, Onstreet:Argyle Av, Fromstreet: Selma Av, Affected:1 </name><Point><coordinates>-118.324971,34.099773,0</coordinates></Point></Placemark><Placemark><name>Sensor:31331, Onstreet:Ivar Av, Fromstreet: Selma Av, Affected:1 </name><Point><coordinates>-118.327975,34.099751,0</coordinates></Point></Placemark><Placemark><name>Sensor:10017, Onstreet:Broadway, Fromstreet: Venice Bl, Affected:2 </name><Point><coordinates>-118.263323,34.034156,0</coordinates></Point></Placemark><Placemark><name>Sensor:50792, Onstreet:Olympic Bl, Fromstreet: Santa Fe Av, Affected:2 </name><Point><coordinates>-118.229849,34.025573,0</coordinates></Point></Placemark><Placemark><name>Sensor:41492, Onstreet:BUNDY DR, Fromstreet: OLYMPIC BL, Affected:4 </name><Point><coordinates>-118.453588,34.032416,0</coordinates></Point></Placemark><Placemark><name>Sensor:50648, Onstreet:Vermont Av, Fromstreet: Washington Bl, Affected:2 </name><Point><coordinates>-118.291368,34.039949,0</coordinates></Point></Placemark><Placemark><name>Sensor:50175, Onstreet:PICO BL, Fromstreet: SAN VICENTE BL, Affected:2 </name><Point><coordinates>-118.33909,34.048446,0</coordinates></Point></Placemark><Placemark><name>Sensor:141148, Onstreet:Avenue 28, Cypress Av, Fromstreet: Pepper Av, Affected:2 </name><Point><coordinates>-118.223176,34.090911,0</coordinates></Point></Placemark><Placemark><name>Sensor:10541, Onstreet:Broadway, Fromstreet: Slauson Av, Affected:3 </name><Point><coordinates>-118.278192,33.989094,0</coordinates></Point></Placemark><Placemark><name>Sensor:21520, Onstreet:7TH ST, Fromstreet: ALAMEDA ST, Affected:2 </name><Point><coordinates>-118.238518,34.034928,0</coordinates></Point></Placemark><Placemark><name>Sensor:21083, Onstreet:North Broadway, Fromstreet: Ord St, Affected:2 </name><Point><coordinates>-118.239119,34.060313,0</coordinates></Point></Placemark><Placemark><name>Sensor:141044, Onstreet:Aldama St, Fromstreet: York Bl, Affected:2 </name><Point><coordinates>-118.18908,34.118098,0</coordinates></Point></Placemark><Placemark><name>Sensor:70507, Onstreet:Beverly Bl, Stanley Av, Fromstreet: The Grove Dr, Affected:4 </name><Point><coordinates>-118.356149,34.076083,0</coordinates></Point></Placemark><Placemark><name>Sensor:61816, Onstreet:COLFAX AV, Fromstreet: OXNARD ST, Affected:2 </name><Point><coordinates>-118.387607,34.179359,0</coordinates></Point></Placemark><Placemark><name>Sensor:70268, Onstreet:Melrose Av, Fromstreet: Wilton Pl, Affected:1 </name><Point><coordinates>-118.31332,34.083465,0</coordinates></Point></Placemark><Placemark><name>Sensor:50155, Onstreet:Fairfax Av, Fromstreet: Pico Bl, Affected:2 </name><Point><coordinates>-118.366448,34.051514,0</coordinates></Point></Placemark><Placemark><name>Sensor:20593, Onstreet:2nd St, Fromstreet: Los Angeles St, Affected:2 </name><Point><coordinates>-118.243196,34.050185,0</coordinates></Point></Placemark><Placemark><name>Sensor:110048, Onstreet:Figueroa St, Fromstreet: Pacific Coast Hwy, Affected:4 </name><Point><coordinates>-118.280894,33.790525,0</coordinates></Point></Placemark><Placemark><name>Sensor:90173, Onstreet:Burbank Bl, Crebs Av, Fromstreet: Ventura Bl, Affected:2 </name><Point><coordinates>-118.542681,34.171569,0</coordinates></Point></Placemark><Placemark><name>Sensor:140569, Onstreet:1st St, Fromstreet: Breed St, Affected:2 </name><Point><coordinates>-118.210923,34.044262,0</coordinates></Point></Placemark><Placemark><name>Sensor:31124, Onstreet:Gower St, Fromstreet: Sunset Bl, Affected:2 </name><Point><coordinates>-118.322182,34.09797,0</coordinates></Point></Placemark><Placemark><name>Sensor:80123, Onstreet:Allesandro St, Glendale Fwy W/B Off-ramp, Fromstreet: Riverside Dr, Affected:2 </name><Point><coordinates>-118.249848,34.099516,0</coordinates></Point></Placemark><Placemark><name>Sensor:130233, Onstreet:11th St, Fromstreet: Albany St, Affected:1 </name><Point><coordinates>-118.271884,34.046279,0</coordinates></Point></Placemark><Placemark><name>Sensor:11233, Onstreet:Coliseum St, Fromstreet: Crenshaw Bl, Affected:1 </name><Point><coordinates>-118.334948,34.018234,0</coordinates></Point></Placemark><Placemark><name>Sensor:21250, Onstreet:1st St, Fromstreet: Alameda St, Affected:2 </name><Point><coordinates>-118.237895,34.04894,0</coordinates></Point></Placemark><Placemark><name>Sensor:70363, Onstreet:6th St, Fromstreet: Rossmore Av, Affected:1 </name><Point><coordinates>-118.327417,34.06381,0</coordinates></Point></Placemark><Placemark><name>Sensor:50069, Onstreet:Olympic Bl, Fromstreet: Western Av, Affected:2 </name><Point><coordinates>-118.308856,34.052587,0</coordinates></Point></Placemark><Placemark><name>Sensor:80780, Onstreet:Beaudry Av, Fromstreet: Sunset Bl, Affected:1 </name><Point><coordinates>-118.249075,34.065141,0</coordinates></Point></Placemark><Placemark><name>Sensor:120635, Onstreet:Fiji Wy, Fromstreet: Lincoln Bl, Affected:1 </name><Point><coordinates>-118.436421,33.978558,0</coordinates></Point></Placemark><Placemark><name>Sensor:10829, Onstreet:Washington Bl Bet San Pedro St, Fromstreet: Stanford Av (South Side), Affected:2 </name><Point><coordinates>-118.256521,34.027225,0</coordinates></Point></Placemark><Placemark><name>Sensor:41260, Onstreet:Glendon Av, Fromstreet: Wilshire Bl, Affected:1 </name><Point><coordinates>-118.442859,34.059003,0</coordinates></Point></Placemark><Placemark><name>Sensor:31180, Onstreet:Fountain Av, Fromstreet: Western Av, Affected:1 </name><Point><coordinates>-118.309007,34.094881,0</coordinates></Point></Placemark><Placemark><name>Sensor:50045, Onstreet:Highland Av, Fromstreet: Olympic Bl, Affected:1 </name><Point><coordinates>-118.33982,34.05705,0</coordinates></Point></Placemark><Placemark><name>Sensor:40134, Onstreet:LINCOLN BL, Fromstreet: MANCHESTER AV, Affected:2 </name><Point><coordinates>-118.419148,33.959568,0</coordinates></Point></Placemark><Placemark><name>Sensor:81473, Onstreet:3rd St, Fromstreet: Virgil Av, Affected:3 </name><Point><coordinates>-118.286583,34.068917,0</coordinates></Point></Placemark><Placemark><name>Sensor:10637, Onstreet:Gage Av, Fromstreet: Grand Av (Harbor Fwy N/B Ramps), Affected:2 </name><Point><coordinates>-118.27993,33.982335,0</coordinates></Point></Placemark><Placemark><name>Sensor:41470, Onstreet:Bundy Dr, Ohio Av, Fromstreet: Santa Monica Bl, Affected:5 </name><Point><coordinates>-118.462729,34.040163,0</coordinates></Point></Placemark><Placemark><name>Sensor:60784, Onstreet:Riverside Dr, Fromstreet: Woodman Av, Affected:4 </name><Point><coordinates>-118.431058,34.157643,0</coordinates></Point></Placemark><Placemark><name>Sensor:141032, Onstreet:Avenue 50, Fromstreet: Buchanan St, Affected:1 </name><Point><coordinates>-118.207254,34.119665,0</coordinates></Point></Placemark><Placemark><name>Sensor:41305, Onstreet:Kinross Av, Fromstreet: Westwood Bl, Affected:3 </name><Point><coordinates>-118.445241,34.060869,0</coordinates></Point></Placemark><Placemark><name>Sensor:120757, Onstreet:Jefferson Bl, Fromstreet: Playa Vista Dr, Affected:3 </name><Point><coordinates>-118.428074,33.972829,0</coordinates></Point></Placemark><Placemark><name>Sensor:11418, Onstreet:Leimert Bl, Fromstreet: Vernon Av, Affected:2 </name><Point><coordinates>-118.330464,34.003664,0</coordinates></Point></Placemark><Placemark><name>Sensor:91681, Onstreet:Oso Av, Fromstreet: Sherman Wy, Affected:3 </name><Point><coordinates>-118.57519,34.201094,0</coordinates></Point></Placemark><Placemark><name>Sensor:90534, Onstreet:Avenue San Luis, Calabasas Rd, Mulholland Dr, Fromstreet: Valley Circle Bl, Affected:3 </name><Point><coordinates>-118.636129,34.158715,0</coordinates></Point></Placemark><Placemark><name>Sensor:11331, Onstreet:null, Fromstreet: null, Affected:4 </name><Point><coordinates>-118.291432,33.959976,0</coordinates></Point></Placemark><Placemark><name>Sensor:61494, Onstreet:Commerce Av, Fromstreet: Foothill Bl, Affected:1 </name><Point><coordinates>-118.288387,34.248539,0</coordinates></Point></Placemark><Placemark><name>Sensor:70475, Onstreet:8th St, Fromstreet: Catalina St, Affected:2 </name><Point><coordinates>-118.295316,34.057673,0</coordinates></Point></Placemark><Placemark><name>Sensor:70195, Onstreet:6th St, Fromstreet: La Brea Av, Affected:2 </name><Point><coordinates>-118.343832,34.064861,0</coordinates></Point></Placemark><Placemark><name>Sensor:21102, Onstreet:Fort Moore Pl, Grand Av, Fromstreet: Hollywood Fwy N/B Ramps, Affected:2 </name><Point><coordinates>-118.244955,34.059497,0</coordinates></Point></Placemark><Placemark><name>Sensor:50193, Onstreet:Arlington Av, Fromstreet: Pico Bl, Affected:1 </name><Point><coordinates>-118.317396,34.047116,0</coordinates></Point></Placemark><Placemark><name>Sensor:50666, Onstreet:Adams Bl, Fromstreet: Hauser Bl, Affected:2 </name><Point><coordinates>-118.362436,34.03246,0</coordinates></Point></Placemark><Placemark><name>Sensor:81580, Onstreet:Rosewood Av, Fromstreet: Vermont Av, Affected:2 </name><Point><coordinates>-118.291476,34.07898,0</coordinates></Point></Placemark><Placemark><name>Sensor:80133, Onstreet:Hollywood Bl, Fromstreet: Normandie Av, Affected:1 </name><Point><coordinates>-118.300338,34.101747,0</coordinates></Point></Placemark><Placemark><name>Sensor:31115, Onstreet:Sunset Bl, Fromstreet: Vine St, Affected:2 </name><Point><coordinates>-118.326516,34.097949,0</coordinates></Point></Placemark><Placemark><name>Sensor:70305, Onstreet:Beverly Bl, Fromstreet: Wilton Pl, Affected:2 </name><Point><coordinates>-118.313298,34.076191,0</coordinates></Point></Placemark><Placemark><name>Sensor:140312, Onstreet:Cesar E Chavez Av, Fromstreet: Mission Rd, Affected:3 </name><Point><coordinates>-118.225665,34.054433,0</coordinates></Point></Placemark><Placemark><name>Sensor:140243, Onstreet:Golden State Fwy S/B Ramps, Fromstreet: Mission Rd, Affected:3 </name><Point><coordinates>-118.215193,34.059948,0</coordinates></Point></Placemark><Placemark><name>Sensor:90443, Onstreet:De Soto Av, Victory Bl, Fromstreet: Busway, Affected:3 </name><Point><coordinates>-118.58815,34.188413,0</coordinates></Point></Placemark><Placemark><name>Sensor:21138, Onstreet:6th St, Fromstreet: Broadway, Affected:1 </name><Point><coordinates>-118.251821,34.04658,0</coordinates></Point></Placemark><Placemark><name>Sensor:41064, Onstreet:Century Park East, Fromstreet: Olympic Bl, Affected:3 </name><Point><coordinates>-118.411767,34.058488,0</coordinates></Point></Placemark><Placemark><name>Sensor:10793, Onstreet:null, Fromstreet: null, Affected:2 </name><Point><coordinates>-118.282333,33.930987,0</coordinates></Point></Placemark><Placemark><name>Sensor:50542, Onstreet:Crenshaw Bl, Fromstreet: Washington Bl, Affected:3 </name><Point><coordinates>-118.330829,34.039927,0</coordinates></Point></Placemark><Placemark><name>Sensor:120028, Onstreet:Admiralty Wy, Fromstreet: Palawan Wy, Affected:2 </name><Point><coordinates>-118.457536,33.983214,0</coordinates></Point></Placemark><Placemark><name>Sensor:50279, Onstreet:18th St, Fromstreet: La Cienega Bl, Affected:2 </name><Point><coordinates>-118.376641,34.044519,0</coordinates></Point></Placemark><Placemark><name>Sensor:11495, Onstreet:null, Fromstreet: null, Affected:2 </name><Point><coordinates>-118.330656,33.978151,0</coordinates></Point></Placemark><Placemark><name>Sensor:81562, Onstreet:Beverly Bl, Fromstreet: Vermont Av, Affected:2 </name><Point><coordinates>-118.291518,34.076234,0</coordinates></Point></Placemark><Placemark><name>Sensor:70126, Onstreet:3rd St, Fromstreet: Crescent Heights Bl, Affected:2 </name><Point><coordinates>-118.365612,34.072092,0</coordinates></Point></Placemark><Placemark><name>Sensor:90399, Onstreet:Topanga Canyon Bl, Fromstreet: Victory Bl, Affected:4 </name><Point><coordinates>-118.605617,34.187018,0</coordinates></Point></Placemark><Placemark><name>Sensor:120119, Onstreet:Abbot Kinney Bl, Fromstreet: Washington Bl, Affected:2 </name><Point><coordinates>-118.451721,33.988407,0</coordinates></Point></Placemark><Placemark><name>Sensor:130026, Onstreet:8th St, Fromstreet: Union Av, Affected:2 </name><Point><coordinates>-118.271927,34.052244,0</coordinates></Point></Placemark><Placemark><name>Sensor:50595, Onstreet:Washington Bl, Fromstreet: West Bl, Affected:2 </name><Point><coordinates>-118.337073,34.039927,0</coordinates></Point></Placemark><Placemark><name>Sensor:70280, Onstreet:Ardmore Av, Fromstreet: Melrose Av, Affected:1 </name><Point><coordinates>-118.30141,34.083487,0</coordinates></Point></Placemark><Placemark><name>Sensor:60923, Onstreet:CAHUENGA BL, Fromstreet: RIVERSIDE DR, Affected:2 </name><Point><coordinates>-118.361235,34.152172,0</coordinates></Point></Placemark><Placemark><name>Sensor:80142, Onstreet:Hollywood Bl, Prospect Av, Fromstreet: Vermont Av, Affected:3 </name><Point><coordinates>-118.291562,34.101554,0</coordinates></Point></Placemark><Placemark><name>Sensor:50153, Onstreet:Fairfax Av, Fromstreet: Pico Bl, Affected:2 </name><Point><coordinates>-118.366448,34.051514,0</coordinates></Point></Placemark><Placemark><name>Sensor:11486, Onstreet:null, Fromstreet: null, Affected:2 </name><Point><coordinates>-118.330592,33.982871,0</coordinates></Point></Placemark><Placemark><name>Sensor:61474, Onstreet:Foothill Bl, Fromstreet: Oro Vista Av, Affected:2 </name><Point><coordinates>-118.315596,34.259718,0</coordinates></Point></Placemark><Placemark><name>Sensor:130370, Onstreet:ALBANY ST, Fromstreet: PICO BL, Affected:2 </name><Point><coordinates>-118.273773,34.043254,0</coordinates></Point></Placemark><Placemark><name>Sensor:50030, Onstreet:Hauser Bl, Fromstreet: Olympic Bl, Affected:1 </name><Point><coordinates>-118.353209,34.057415,0</coordinates></Point></Placemark><Placemark><name>Sensor:61675, Onstreet:Hazeltine Av, Fromstreet: Victory Bl, Affected:2 </name><Point><coordinates>-118.439728,34.186676,0</coordinates></Point></Placemark><Placemark><name>Sensor:10237, Onstreet:Exposition Bl, Fromstreet: Western Av, Affected:2 </name><Point><coordinates>-118.308684,34.018341,0</coordinates></Point></Placemark><Placemark><name>Sensor:41141, Onstreet:Beverly Glen Bl, Fromstreet: Santa Monica Bl, Affected:2 </name><Point><coordinates>-118.423912,34.057329,0</coordinates></Point></Placemark><Placemark><name>Sensor:61618, Onstreet:Louise Av, Fromstreet: Victory Bl, Affected:3 </name><Point><coordinates>-118.509765,34.186504,0</coordinates></Point></Placemark><Placemark><name>Sensor:21246, Onstreet:1st St, Fromstreet: Alameda St, Affected:2 </name><Point><coordinates>-118.237895,34.04894,0</coordinates></Point></Placemark><Placemark><name>Sensor:61465, Onstreet:Foothill Bl, Fromstreet: Sunland Bl, Affected:2 </name><Point><coordinates>-118.322398,34.259847,0</coordinates></Point></Placemark><Placemark><name>Sensor:10739, Onstreet:null, Fromstreet: null, Affected:3 </name><Point><coordinates>-118.282527,33.97461,0</coordinates></Point></Placemark><Placemark><name>Sensor:120122, Onstreet:Abbot Kinney Bl, Fromstreet: Washington Bl, Affected:2 </name><Point><coordinates>-118.451721,33.988407,0</coordinates></Point></Placemark><Placemark><name>Sensor:60359, Onstreet:Cahuenga Bl West, Hollywood Fwy S/B Ramps, Fromstreet: Regal Pl, Affected:2 </name><Point><coordinates>-118.360913,34.135006,0</coordinates></Point></Placemark><Placemark><name>Sensor:30935, Onstreet:FAIRFAX AV, Fromstreet: HOLLYWOOD BL, Affected:1 </name><Point><coordinates>-118.361299,34.101339,0</coordinates></Point></Placemark><Placemark><name>Sensor:140646, Onstreet:1st St, Fromstreet: Mott St, Affected:2 </name><Point><coordinates>-118.205902,34.041924,0</coordinates></Point></Placemark><Placemark><name>Sensor:120001, Onstreet:TAHITI WY, Fromstreet: VIA MARINA, Affected:2 </name><Point><coordinates>-118.457257,33.973773,0</coordinates></Point></Placemark><Placemark><name>Sensor:41558, Onstreet:Brockton Av, Fromstreet: Santa Monica Bl, Affected:3 </name><Point><coordinates>-118.46112,34.041386,0</coordinates></Point></Placemark><Placemark><name>Sensor:120521, Onstreet:Glencoe Av Bet Maxella Av, Fromstreet: Mindanao Wy, Affected:2 </name><Point><coordinates>-118.438825,33.986175,0</coordinates></Point></Placemark><Placemark><name>Sensor:61677, Onstreet:Fulton Av, Fromstreet: Victory Bl, Affected:2 </name><Point><coordinates>-118.42224,34.186676,0</coordinates></Point></Placemark><Placemark><name>Sensor:21127, Onstreet:3rd St, Fromstreet: Central Av, Affected:2 </name><Point><coordinates>-118.239397,34.046043,0</coordinates></Point></Placemark><Placemark><name>Sensor:60526, Onstreet:Laurel Canyon Bl, Fromstreet: Oxnard St, Affected:2 </name><Point><coordinates>-118.39634,34.179423,0</coordinates></Point></Placemark><Placemark><name>Sensor:11579, Onstreet:55th St, Fromstreet: Alameda St, Affected:4 </name><Point><coordinates>-118.237938,33.992957,0</coordinates></Point></Placemark><Placemark><name>Sensor:31246, Onstreet:HOBART BL, Fromstreet: SANTA MONICA BL, Affected:2 </name><Point><coordinates>-118.304436,34.090739,0</coordinates></Point></Placemark><Placemark><name>Sensor:91541, Onstreet:Sherman Wy, Fromstreet: Winnetka Av, Affected:2 </name><Point><coordinates>-118.57077,34.201073,0</coordinates></Point></Placemark><Placemark><name>Sensor:20652, Onstreet:Cesar E Chavez Av, Figueroa St, Fromstreet: Sunset Bl, Affected:3 </name><Point><coordinates>-118.246114,34.06263,0</coordinates></Point></Placemark><Placemark><name>Sensor:10565, Onstreet:Broadway, Fromstreet: Florence Av, Affected:2 </name><Point><coordinates>-118.278107,33.974696,0</coordinates></Point></Placemark><Placemark><name>Sensor:80671, Onstreet:3rd St, Fromstreet: Beaudry Av, Affected:2 </name><Point><coordinates>-118.256371,34.056493,0</coordinates></Point></Placemark><Placemark><name>Sensor:10692, Onstreet:null, Fromstreet: null, Affected:3 </name><Point><coordinates>-118.281454,33.930987,0</coordinates></Point></Placemark><Placemark><name>Sensor:30881, Onstreet:FRANKLIN AV, Fromstreet: WESTERN AV, Affected:3 </name><Point><coordinates>-118.309157,34.105395,0</coordinates></Point></Placemark><Placemark><name>Sensor:140054, Onstreet:Huntington Dr, Fromstreet: Maycrest Av, Affected:4 </name><Point><coordinates>-118.160863,34.093229,0</coordinates></Point></Placemark><Placemark><name>Sensor:40609, Onstreet:Howard Hughes Pkwy, Fromstreet: San Diego Fwy S/B Ramps, Affected:4 </name><Point><coordinates>-118.389171,33.974889,0</coordinates></Point></Placemark><Placemark><name>Sensor:41331, Onstreet:Gayley Av, Fromstreet: Le Conte Av, Affected:2 </name><Point><coordinates>-118.448031,34.063723,0</coordinates></Point></Placemark><Placemark><name>Sensor:80177, Onstreet:Hillhurst Av, Hollywood Bl, Sunset Bl, Fromstreet: Virgil Av, Affected:3 </name><Point><coordinates>-118.287055,34.09825,0</coordinates></Point></Placemark><Placemark><name>Sensor:11307, Onstreet:null, Fromstreet: null, Affected:2 </name><Point><coordinates>-118.308812,33.959955,0</coordinates></Point></Placemark><Placemark><name>Sensor:10924, Onstreet:Naomi Av, Fromstreet: Washington Bl, Affected:3 </name><Point><coordinates>-118.247852,34.023019,0</coordinates></Point></Placemark><Placemark><name>Sensor:80072, Onstreet:Ambrose Av, Fromstreet: Vermont Av, Affected:2 </name><Point><coordinates>-118.291583,34.109944,0</coordinates></Point></Placemark><Placemark><name>Sensor:60870, Onstreet:Camarillo St, Lankershim Bl, Fromstreet: Vineland Av, Affected:2 </name><Point><coordinates>-118.370033,34.157601,0</coordinates></Point></Placemark><Placemark><name>Sensor:60668, Onstreet:Magnolia Bl, Fromstreet: Sepulveda Bl, Affected:2 </name><Point><coordinates>-118.46597,34.164832,0</coordinates></Point></Placemark><Placemark><name>Sensor:30925, Onstreet:Argyle Av, Fromstreet: Yucca St, Affected:2 </name><Point><coordinates>-118.325014,34.1037,0</coordinates></Point></Placemark><Placemark><name>Sensor:51046, Onstreet:La Cienega Bl, Fromstreet: Rodeo Rd, Affected:4 </name><Point><coordinates>-118.372134,34.021645,0</coordinates></Point></Placemark><Placemark><name>Sensor:60551, Onstreet:Burbank Bl, Fromstreet: Woodley Av, Affected:4 </name><Point><coordinates>-118.475433,34.171591,0</coordinates></Point></Placemark><Placemark><name>Sensor:40215, Onstreet:Century Bl, Fromstreet: La Cienega Bl, Affected:3 </name><Point><coordinates>-118.369816,33.945406,0</coordinates></Point></Placemark><Placemark><name>Sensor:60568, Onstreet:Burbank Bl, Fromstreet: San Diego Fwy N/B Ramps, Affected:4 </name><Point><coordinates>-118.467022,34.172063,0</coordinates></Point></Placemark><Placemark><name>Sensor:140487, Onstreet:Lorena St, Fromstreet: Olympic Bl, Affected:2 </name><Point><coordinates>-118.206481,34.018728,0</coordinates></Point></Placemark><Placemark><name>Sensor:31156, Onstreet:Sunset Bl, Fromstreet: Western Av, Affected:2 </name><Point><coordinates>-118.309028,34.098035,0</coordinates></Point></Placemark><Placemark><name>Sensor:41284, Onstreet:Westwood Bl, Fromstreet: Wilshire Bl, Affected:3 </name><Point><coordinates>-118.443868,34.058724,0</coordinates></Point></Placemark><Placemark><name>Sensor:80531, Onstreet:8th St, Fromstreet: Vermont Av, Affected:2 </name><Point><coordinates>-118.291432,34.057673,0</coordinates></Point></Placemark>